<?xml version="1.0" encoding="utf-8"?>
<TransXChange xmlns:xsi="http://www.w3.org/2001/XMLSchema-instance" SchemaVersion="2.4" CreationDateTime="2023-07-14T13:09:12" ModificationDateTime="2024-01-29T11:49:21" Modification="revise" RevisionNumber="16" FileName="GTRI_336_GTRIPC0004417369336_20240128_20240323_8c410f5c-b4fa-4aa2-b027-c5904bf43adf.xml" xmlns="http://www.transxchange.org.uk/">
  <ServicedOrganisations>
    <ServicedOrganisation>
      <OrganisationCode>SCH</OrganisationCode>
      <Name>ChristmasEve</Name>
      <WorkingDays>
        <DateRange>
          <StartDate>2021-12-24</StartDate>
          <EndDate>2021-12-24</EndDate>
        </DateRange>
      </WorkingDays>
    </ServicedOrganisation>
  </ServicedOrganisations>
  <StopPoints>
    <AnnotatedStopPointRef>
      <StopPointRef>1800ANIN0N1</StopPointRef>
      <CommonName>ASHTON Interchange</CommonName>
      <Location>
        <Longitude>-2.096616</Longitude>
        <Latitude>53.490320</Latitude>
      </Location>
    </AnnotatedStopPointRef>
    <AnnotatedStopPointRef>
      <StopPointRef>1800EH21821</StopPointRef>
      <CommonName>Lord St</CommonName>
      <Location>
        <Longitude>-2.093095</Longitude>
        <Latitude>53.492890</Latitude>
      </Location>
    </AnnotatedStopPointRef>
    <AnnotatedStopPointRef>
      <StopPointRef>1800EH20871</StopPointRef>
      <CommonName>Miller St</CommonName>
      <Location>
        <Longitude>-2.092889</Longitude>
        <Latitude>53.495010</Latitude>
      </Location>
    </AnnotatedStopPointRef>
    <AnnotatedStopPointRef>
      <StopPointRef>1800EH20851</StopPointRef>
      <CommonName>Smallshaw Ln</CommonName>
      <Location>
        <Longitude>-2.093239</Longitude>
        <Latitude>53.496860</Latitude>
      </Location>
    </AnnotatedStopPointRef>
    <AnnotatedStopPointRef>
      <StopPointRef>1800EH21731</StopPointRef>
      <CommonName>Broadoak Hotel</CommonName>
      <Location>
        <Longitude>-2.092885</Longitude>
        <Latitude>53.500220</Latitude>
      </Location>
    </AnnotatedStopPointRef>
    <AnnotatedStopPointRef>
      <StopPointRef>1800EH20831</StopPointRef>
      <CommonName>Laburnum Ave</CommonName>
      <Location>
        <Longitude>-2.090432</Longitude>
        <Latitude>53.502330</Latitude>
      </Location>
    </AnnotatedStopPointRef>
    <AnnotatedStopPointRef>
      <StopPointRef>1800EH20811</StopPointRef>
      <CommonName>Coronation Rd</CommonName>
      <Location>
        <Longitude>-2.086455</Longitude>
        <Latitude>53.503530</Latitude>
      </Location>
    </AnnotatedStopPointRef>
    <AnnotatedStopPointRef>
      <StopPointRef>1800EH20791</StopPointRef>
      <CommonName>Oakfold Ave</CommonName>
      <Location>
        <Longitude>-2.081405</Longitude>
        <Latitude>53.503950</Latitude>
      </Location>
    </AnnotatedStopPointRef>
    <AnnotatedStopPointRef>
      <StopPointRef>1800EH21091</StopPointRef>
      <CommonName>St Christopher's</CommonName>
      <Location>
        <Longitude>-2.077937</Longitude>
        <Latitude>53.503650</Latitude>
      </Location>
    </AnnotatedStopPointRef>
    <AnnotatedStopPointRef>
      <StopPointRef>1800EH14481</StopPointRef>
      <CommonName>Springfield St</CommonName>
      <Location>
        <Longitude>-2.076318</Longitude>
        <Latitude>53.500610</Latitude>
      </Location>
    </AnnotatedStopPointRef>
    <AnnotatedStopPointRef>
      <StopPointRef>1800EH08521</StopPointRef>
      <CommonName>Hurst Cemetery</CommonName>
      <Location>
        <Longitude>-2.073199</Longitude>
        <Latitude>53.501200</Latitude>
      </Location>
    </AnnotatedStopPointRef>
    <AnnotatedStopPointRef>
      <StopPointRef>1800EH21991</StopPointRef>
      <CommonName>Grange Park Ave</CommonName>
      <Location>
        <Longitude>-2.069402</Longitude>
        <Latitude>53.502720</Latitude>
      </Location>
    </AnnotatedStopPointRef>
    <AnnotatedStopPointRef>
      <StopPointRef>1800EH21011</StopPointRef>
      <CommonName>Weymouth Rd</CommonName>
      <Location>
        <Longitude>-2.067277</Longitude>
        <Latitude>53.503230</Latitude>
      </Location>
    </AnnotatedStopPointRef>
    <AnnotatedStopPointRef>
      <StopPointRef>1800EH08531</StopPointRef>
      <CommonName>Hazelhurst Rd</CommonName>
      <Location>
        <Longitude>-2.064369</Longitude>
        <Latitude>53.504230</Latitude>
      </Location>
    </AnnotatedStopPointRef>
    <AnnotatedStopPointRef>
      <StopPointRef>1800EH21031</StopPointRef>
      <CommonName>Matlock Ave</CommonName>
      <Location>
        <Longitude>-2.062423</Longitude>
        <Latitude>53.503740</Latitude>
      </Location>
    </AnnotatedStopPointRef>
    <AnnotatedStopPointRef>
      <StopPointRef>1800EH21041</StopPointRef>
      <CommonName>Hazelhurst Rd</CommonName>
      <Location>
        <Longitude>-2.062437</Longitude>
        <Latitude>53.502580</Latitude>
      </Location>
    </AnnotatedStopPointRef>
    <AnnotatedStopPointRef>
      <StopPointRef>1800EH21051</StopPointRef>
      <CommonName>Matlock Ave</CommonName>
      <Location>
        <Longitude>-2.064458</Longitude>
        <Latitude>53.503510</Latitude>
      </Location>
    </AnnotatedStopPointRef>
    <AnnotatedStopPointRef>
      <StopPointRef>1800EH22001</StopPointRef>
      <CommonName>Weymouth Rd</CommonName>
      <Location>
        <Longitude>-2.067412</Longitude>
        <Latitude>53.503060</Latitude>
      </Location>
    </AnnotatedStopPointRef>
    <AnnotatedStopPointRef>
      <StopPointRef>1800EHH1041</StopPointRef>
      <CommonName>Rose Hill Road (S Bnd)</CommonName>
      <Location>
        <Longitude>-2.068372</Longitude>
        <Latitude>53.499530</Latitude>
      </Location>
    </AnnotatedStopPointRef>
    <AnnotatedStopPointRef>
      <StopPointRef>1800EH09231</StopPointRef>
      <CommonName>Park Square</CommonName>
      <Location>
        <Longitude>-2.069949</Longitude>
        <Latitude>53.496200</Latitude>
      </Location>
    </AnnotatedStopPointRef>
    <AnnotatedStopPointRef>
      <StopPointRef>1800EH09251</StopPointRef>
      <CommonName>Hurst Bank Rd</CommonName>
      <Location>
        <Longitude>-2.073474</Longitude>
        <Latitude>53.494700</Latitude>
      </Location>
    </AnnotatedStopPointRef>
    <AnnotatedStopPointRef>
      <StopPointRef>1800EH09271</StopPointRef>
      <CommonName>Post Office</CommonName>
      <Location>
        <Longitude>-2.078068</Longitude>
        <Latitude>53.492970</Latitude>
      </Location>
    </AnnotatedStopPointRef>
    <AnnotatedStopPointRef>
      <StopPointRef>1800EH09281</StopPointRef>
      <CommonName>Crickets Ln</CommonName>
      <Location>
        <Longitude>-2.081848</Longitude>
        <Latitude>53.491540</Latitude>
      </Location>
    </AnnotatedStopPointRef>
    <AnnotatedStopPointRef>
      <StopPointRef>1800EH24161</StopPointRef>
      <CommonName>Crickets Ln</CommonName>
      <Location>
        <Longitude>-2.087452</Longitude>
        <Latitude>53.490060</Latitude>
      </Location>
    </AnnotatedStopPointRef>
    <AnnotatedStopPointRef>
      <StopPointRef>1800EH15911</StopPointRef>
      <CommonName>Glebe St</CommonName>
      <Location>
        <Longitude>-2.089245</Longitude>
        <Latitude>53.489910</Latitude>
      </Location>
    </AnnotatedStopPointRef>
    <AnnotatedStopPointRef>
      <StopPointRef>1800EH17991</StopPointRef>
      <CommonName>Swan St</CommonName>
      <Location>
        <Longitude>-2.090797</Longitude>
        <Latitude>53.489780</Latitude>
      </Location>
    </AnnotatedStopPointRef>
    <AnnotatedStopPointRef>
      <StopPointRef>1800ANAR011</StopPointRef>
      <CommonName>ASHTON UL Interchange</CommonName>
      <Location>
        <Longitude>-2.098319</Longitude>
        <Latitude>53.490235</Latitude>
      </Location>
    </AnnotatedStopPointRef>
    <AnnotatedStopPointRef>
      <StopPointRef>1800SBH1321</StopPointRef>
      <CommonName>Abberton Road</CommonName>
      <Location>
        <Longitude>-2.239822</Longitude>
        <Latitude>53.430566</Latitude>
      </Location>
    </AnnotatedStopPointRef>
    <AnnotatedStopPointRef>
      <StopPointRef>1800SBH1261</StopPointRef>
      <CommonName>Abberton Road</CommonName>
      <Location>
        <Longitude>-2.239837</Longitude>
        <Latitude>53.430665</Latitude>
      </Location>
    </AnnotatedStopPointRef>
    <AnnotatedStopPointRef>
      <StopPointRef>1800WK35651</StopPointRef>
      <CommonName>Abbey Lane</CommonName>
      <Location>
        <Longitude>-2.530667</Longitude>
        <Latitude>53.516807</Latitude>
      </Location>
    </AnnotatedStopPointRef>
    <AnnotatedStopPointRef>
      <StopPointRef>1800NB40871</StopPointRef>
      <CommonName>Abraham Moss Centre</CommonName>
      <Location>
        <Longitude>-2.237810</Longitude>
        <Latitude>53.512194</Latitude>
      </Location>
    </AnnotatedStopPointRef>
    <AnnotatedStopPointRef>
      <StopPointRef>1800NB40881</StopPointRef>
      <CommonName>Abraham Moss Centre</CommonName>
      <Location>
        <Longitude>-2.237358</Longitude>
        <Latitude>53.512375</Latitude>
      </Location>
    </AnnotatedStopPointRef>
    <AnnotatedStopPointRef>
      <StopPointRef>1800NF40631</StopPointRef>
      <CommonName>Abram Street</CommonName>
      <Location>
        <Longitude>-2.291814</Longitude>
        <Latitude>53.504075</Latitude>
      </Location>
    </AnnotatedStopPointRef>
    <AnnotatedStopPointRef>
      <StopPointRef>1800NF40641</StopPointRef>
      <CommonName>Abram Street</CommonName>
      <Location>
        <Longitude>-2.292194</Longitude>
        <Latitude>53.504523</Latitude>
      </Location>
    </AnnotatedStopPointRef>
    <AnnotatedStopPointRef>
      <StopPointRef>1800NF17941</StopPointRef>
      <CommonName>Agecroft Bridge</CommonName>
      <Location>
        <Longitude>-2.294143</Longitude>
        <Latitude>53.513804</Latitude>
      </Location>
    </AnnotatedStopPointRef>
    <AnnotatedStopPointRef>
      <StopPointRef>1800NF17951</StopPointRef>
      <CommonName>Agecroft Bridge</CommonName>
      <Location>
        <Longitude>-2.293286</Longitude>
        <Latitude>53.514165</Latitude>
      </Location>
    </AnnotatedStopPointRef>
    <AnnotatedStopPointRef>
      <StopPointRef>1800NF42081</StopPointRef>
      <CommonName>Agecroft Dauntesy Ave</CommonName>
      <Location>
        <Longitude>-2.305881</Longitude>
        <Latitude>53.510431</Latitude>
      </Location>
    </AnnotatedStopPointRef>
    <AnnotatedStopPointRef>
      <StopPointRef>1800NF42061</StopPointRef>
      <CommonName>Agecroft Dauntesy Ave</CommonName>
      <Location>
        <Longitude>-2.307521</Longitude>
        <Latitude>53.509950</Latitude>
      </Location>
    </AnnotatedStopPointRef>
    <AnnotatedStopPointRef>
      <StopPointRef>1800NF09851</StopPointRef>
      <CommonName>Agecroft Enterprise Park</CommonName>
      <Location>
        <Longitude>-2.301858</Longitude>
        <Latitude>53.508814</Latitude>
      </Location>
    </AnnotatedStopPointRef>
    <AnnotatedStopPointRef>
      <StopPointRef>1800WF39061</StopPointRef>
      <CommonName>Agecroft Road</CommonName>
      <Location>
        <Longitude>-2.314085</Longitude>
        <Latitude>53.508594</Latitude>
      </Location>
    </AnnotatedStopPointRef>
    <AnnotatedStopPointRef>
      <StopPointRef>1800WF39051</StopPointRef>
      <CommonName>Agecroft Road</CommonName>
      <Location>
        <Longitude>-2.312540</Longitude>
        <Latitude>53.507582</Latitude>
      </Location>
    </AnnotatedStopPointRef>
    <AnnotatedStopPointRef>
      <StopPointRef>1800NF40691</StopPointRef>
      <CommonName>Agecroft Road</CommonName>
      <Location>
        <Longitude>-2.295378</Longitude>
        <Latitude>53.511419</Latitude>
      </Location>
    </AnnotatedStopPointRef>
    <AnnotatedStopPointRef>
      <StopPointRef>1800NF40681</StopPointRef>
      <CommonName>Agecroft Road</CommonName>
      <Location>
        <Longitude>-2.295771</Longitude>
        <Latitude>53.511517</Latitude>
      </Location>
    </AnnotatedStopPointRef>
    <AnnotatedStopPointRef>
      <StopPointRef>1800WA25791</StopPointRef>
      <CommonName>Ainsworth Lane</CommonName>
      <Location>
        <Longitude>-2.408380</Longitude>
        <Latitude>53.580171</Latitude>
      </Location>
    </AnnotatedStopPointRef>
    <AnnotatedStopPointRef>
      <StopPointRef>1800SJ12081</StopPointRef>
      <CommonName>Akzo Nobel</CommonName>
      <Location>
        <Longitude>-2.327146</Longitude>
        <Latitude>53.460012</Latitude>
      </Location>
    </AnnotatedStopPointRef>
    <AnnotatedStopPointRef>
      <StopPointRef>1800SB14091</StopPointRef>
      <CommonName>Alan Road</CommonName>
      <Location>
        <Longitude>-2.220357</Longitude>
        <Latitude>53.435466</Latitude>
      </Location>
    </AnnotatedStopPointRef>
    <AnnotatedStopPointRef>
      <StopPointRef>1800SB14101</StopPointRef>
      <CommonName>Alan Road</CommonName>
      <Location>
        <Longitude>-2.220883</Longitude>
        <Latitude>53.435376</Latitude>
      </Location>
    </AnnotatedStopPointRef>
    <AnnotatedStopPointRef>
      <StopPointRef>1800WK32811</StopPointRef>
      <CommonName>Albert Street</CommonName>
      <Location>
        <Longitude>-2.579368</Longitude>
        <Latitude>53.534756</Latitude>
      </Location>
    </AnnotatedStopPointRef>
    <AnnotatedStopPointRef>
      <StopPointRef>1800NB43891</StopPointRef>
      <CommonName>Albyns Avenue</CommonName>
      <Location>
        <Longitude>-2.240800</Longitude>
        <Latitude>53.507613</Latitude>
      </Location>
    </AnnotatedStopPointRef>
    <AnnotatedStopPointRef>
      <StopPointRef>1800EDH4061</StopPointRef>
      <CommonName>Alder Road</CommonName>
      <Location>
        <Longitude>-2.151607</Longitude>
        <Latitude>53.501459</Latitude>
      </Location>
    </AnnotatedStopPointRef>
    <AnnotatedStopPointRef>
      <StopPointRef>1800EDH0541</StopPointRef>
      <CommonName>Alder Road</CommonName>
      <Location>
        <Longitude>-2.151879</Longitude>
        <Latitude>53.501549</Latitude>
      </Location>
    </AnnotatedStopPointRef>
    <AnnotatedStopPointRef>
      <StopPointRef>1800SB32351</StopPointRef>
      <CommonName>Alderfield Road</CommonName>
      <Location>
        <Longitude>-2.292365</Longitude>
        <Latitude>53.444031</Latitude>
      </Location>
    </AnnotatedStopPointRef>
    <AnnotatedStopPointRef>
      <StopPointRef>1800WK32721</StopPointRef>
      <CommonName>Alderley Road</CommonName>
      <Location>
        <Longitude>-2.559128</Longitude>
        <Latitude>53.534187</Latitude>
      </Location>
    </AnnotatedStopPointRef>
    <AnnotatedStopPointRef>
      <StopPointRef>1800SB33431</StopPointRef>
      <CommonName>Aldermary Road</CommonName>
      <Location>
        <Longitude>-2.261280</Longitude>
        <Latitude>53.427447</Latitude>
      </Location>
    </AnnotatedStopPointRef>
    <AnnotatedStopPointRef>
      <StopPointRef>1800WK11241</StopPointRef>
      <CommonName>Alders Green Road</CommonName>
      <Location>
        <Longitude>-2.554849</Longitude>
        <Latitude>53.533461</Latitude>
      </Location>
    </AnnotatedStopPointRef>
    <AnnotatedStopPointRef>
      <StopPointRef>1800WK09891</StopPointRef>
      <CommonName>Aldford Drive</CommonName>
      <Location>
        <Longitude>-2.483278</Longitude>
        <Latitude>53.532361</Latitude>
      </Location>
    </AnnotatedStopPointRef>
    <AnnotatedStopPointRef>
      <StopPointRef>1800WK11051</StopPointRef>
      <CommonName>Aldford Drive</CommonName>
      <Location>
        <Longitude>-2.483382</Longitude>
        <Latitude>53.532217</Latitude>
      </Location>
    </AnnotatedStopPointRef>
    <AnnotatedStopPointRef>
      <StopPointRef>1800ED28171</StopPointRef>
      <CommonName>Alexander Avenue</CommonName>
      <Location>
        <Longitude>-2.147846</Longitude>
        <Latitude>53.512187</Latitude>
      </Location>
    </AnnotatedStopPointRef>
    <AnnotatedStopPointRef>
      <StopPointRef>1800ED28161</StopPointRef>
      <CommonName>Alexander Avenue</CommonName>
      <Location>
        <Longitude>-2.147860</Longitude>
        <Latitude>53.512088</Latitude>
      </Location>
    </AnnotatedStopPointRef>
    <AnnotatedStopPointRef>
      <StopPointRef>1800WA25731</StopPointRef>
      <CommonName>Alexander Road</CommonName>
      <Location>
        <Longitude>-2.408092</Longitude>
        <Latitude>53.586311</Latitude>
      </Location>
    </AnnotatedStopPointRef>
    <AnnotatedStopPointRef>
      <StopPointRef>1800SG46251</StopPointRef>
      <CommonName>Alexandra Hospital</CommonName>
      <Location>
        <Longitude>-2.214507</Longitude>
        <Latitude>53.397833</Latitude>
      </Location>
    </AnnotatedStopPointRef>
    <AnnotatedStopPointRef>
      <StopPointRef>1800SG46261</StopPointRef>
      <CommonName>Alexandra Hospital</CommonName>
      <Location>
        <Longitude>-2.214994</Longitude>
        <Latitude>53.398929</Latitude>
      </Location>
    </AnnotatedStopPointRef>
    <AnnotatedStopPointRef>
      <StopPointRef>1800SB31331</StopPointRef>
      <CommonName>Alexandra Park</CommonName>
      <Location>
        <Longitude>-2.245243</Longitude>
        <Latitude>53.451966</Latitude>
      </Location>
    </AnnotatedStopPointRef>
    <AnnotatedStopPointRef>
      <StopPointRef>1800SB31051</StopPointRef>
      <CommonName>Alexandra Rd South</CommonName>
      <Location>
        <Longitude>-2.252208</Longitude>
        <Latitude>53.443286</Latitude>
      </Location>
    </AnnotatedStopPointRef>
    <AnnotatedStopPointRef>
      <StopPointRef>1800SB31041</StopPointRef>
      <CommonName>Alexandra Rd South</CommonName>
      <Location>
        <Longitude>-2.251110</Longitude>
        <Latitude>53.443405</Latitude>
      </Location>
    </AnnotatedStopPointRef>
    <AnnotatedStopPointRef>
      <StopPointRef>1800SJ41361</StopPointRef>
      <CommonName>All Saints Church</CommonName>
      <Location>
        <Longitude>-2.313809</Longitude>
        <Latitude>53.369155</Latitude>
      </Location>
    </AnnotatedStopPointRef>
    <AnnotatedStopPointRef>
      <StopPointRef>1800SJ41371</StopPointRef>
      <CommonName>All Saints Church</CommonName>
      <Location>
        <Longitude>-2.313931</Longitude>
        <Latitude>53.369362</Latitude>
      </Location>
    </AnnotatedStopPointRef>
    <AnnotatedStopPointRef>
      <StopPointRef>1800SB04561</StopPointRef>
      <CommonName>All Saints Park</CommonName>
      <Location>
        <Longitude>-2.237895</Longitude>
        <Latitude>53.470919</Latitude>
      </Location>
    </AnnotatedStopPointRef>
    <AnnotatedStopPointRef>
      <StopPointRef>1800WK36721</StopPointRef>
      <CommonName>Alpine Drive</CommonName>
      <Location>
        <Longitude>-2.541090</Longitude>
        <Latitude>53.512213</Latitude>
      </Location>
    </AnnotatedStopPointRef>
    <AnnotatedStopPointRef>
      <StopPointRef>1800AMIC0B1</StopPointRef>
      <CommonName>ALTRINCHAM Interchange</CommonName>
      <Location>
        <Longitude>-2.347730</Longitude>
        <Latitude>53.387605</Latitude>
      </Location>
    </AnnotatedStopPointRef>
    <AnnotatedStopPointRef>
      <StopPointRef>1800AMICAR1</StopPointRef>
      <CommonName>ALTRINCHAM Interchange</CommonName>
      <Location>
        <Longitude>-2.347254</Longitude>
        <Latitude>53.388199</Latitude>
      </Location>
    </AnnotatedStopPointRef>
    <AnnotatedStopPointRef>
      <StopPointRef>1800SB42541</StopPointRef>
      <CommonName>Altrincham Road</CommonName>
      <Location>
        <Longitude>-2.257275</Longitude>
        <Latitude>53.397335</Latitude>
      </Location>
    </AnnotatedStopPointRef>
    <AnnotatedStopPointRef>
      <StopPointRef>1800NF29821</StopPointRef>
      <CommonName>Amersham Street</CommonName>
      <Location>
        <Longitude>-2.288748</Longitude>
        <Latitude>53.483364</Latitude>
      </Location>
    </AnnotatedStopPointRef>
    <AnnotatedStopPointRef>
      <StopPointRef>1800EB33611</StopPointRef>
      <CommonName>Amos Street</CommonName>
      <Location>
        <Longitude>-2.205329</Longitude>
        <Latitude>53.509244</Latitude>
      </Location>
    </AnnotatedStopPointRef>
    <AnnotatedStopPointRef>
      <StopPointRef>1800EB33621</StopPointRef>
      <CommonName>Amos Street</CommonName>
      <Location>
        <Longitude>-2.204952</Longitude>
        <Latitude>53.509154</Latitude>
      </Location>
    </AnnotatedStopPointRef>
    <AnnotatedStopPointRef>
      <StopPointRef>1800EH21001</StopPointRef>
      <CommonName>Anglesey Road</CommonName>
      <Location>
        <Longitude>-2.104872</Longitude>
        <Latitude>53.501320</Latitude>
      </Location>
    </AnnotatedStopPointRef>
    <AnnotatedStopPointRef>
      <StopPointRef>1800WK36581</StopPointRef>
      <CommonName>Angus Avenue</CommonName>
      <Location>
        <Longitude>-2.535190</Longitude>
        <Latitude>53.504734</Latitude>
      </Location>
    </AnnotatedStopPointRef>
    <AnnotatedStopPointRef>
      <StopPointRef>1800SB18801</StopPointRef>
      <CommonName>Aquatics Centre</CommonName>
      <Location>
        <Longitude>-2.236668</Longitude>
        <Latitude>53.469771</Latitude>
      </Location>
    </AnnotatedStopPointRef>
    <AnnotatedStopPointRef>
      <StopPointRef>1800WA25761</StopPointRef>
      <CommonName>Archer Avenue</CommonName>
      <Location>
        <Longitude>-2.407262</Longitude>
        <Latitude>53.584813</Latitude>
      </Location>
    </AnnotatedStopPointRef>
    <AnnotatedStopPointRef>
      <StopPointRef>1800NB02281</StopPointRef>
      <CommonName>Arlington Street</CommonName>
      <Location>
        <Longitude>-2.242804</Longitude>
        <Latitude>53.512778</Latitude>
      </Location>
    </AnnotatedStopPointRef>
    <AnnotatedStopPointRef>
      <StopPointRef>1800EH03491</StopPointRef>
      <CommonName>Arnold Close</CommonName>
      <Location>
        <Longitude>-2.054631</Longitude>
        <Latitude>53.470704</Latitude>
      </Location>
    </AnnotatedStopPointRef>
    <AnnotatedStopPointRef>
      <StopPointRef>1800SJ03961</StopPointRef>
      <CommonName>Arran Gardens</CommonName>
      <Location>
        <Longitude>-2.354558</Longitude>
        <Latitude>53.461965</Latitude>
      </Location>
    </AnnotatedStopPointRef>
    <AnnotatedStopPointRef>
      <StopPointRef>1800WF21181</StopPointRef>
      <CommonName>Arundel Street</CommonName>
      <Location>
        <Longitude>-2.356984</Longitude>
        <Latitude>53.517650</Latitude>
      </Location>
    </AnnotatedStopPointRef>
    <AnnotatedStopPointRef>
      <StopPointRef>1800WF40901</StopPointRef>
      <CommonName>Arundel Street</CommonName>
      <Location>
        <Longitude>-2.357287</Longitude>
        <Latitude>53.517847</Latitude>
      </Location>
    </AnnotatedStopPointRef>
    <AnnotatedStopPointRef>
      <StopPointRef>1800WK30721</StopPointRef>
      <CommonName>Asda</CommonName>
      <Location>
        <Longitude>-2.486132</Longitude>
        <Latitude>53.525985</Latitude>
      </Location>
    </AnnotatedStopPointRef>
    <AnnotatedStopPointRef>
      <StopPointRef>1800EB48241</StopPointRef>
      <CommonName>Asda</CommonName>
      <Location>
        <Longitude>-2.209143</Longitude>
        <Latitude>53.512077</Latitude>
      </Location>
    </AnnotatedStopPointRef>
    <AnnotatedStopPointRef>
      <StopPointRef>1800EB48251</StopPointRef>
      <CommonName>Asda</CommonName>
      <Location>
        <Longitude>-2.209454</Longitude>
        <Latitude>53.510926</Latitude>
      </Location>
    </AnnotatedStopPointRef>
    <AnnotatedStopPointRef>
      <StopPointRef>1800EH21301</StopPointRef>
      <CommonName>Ash Grove</CommonName>
      <Location>
        <Longitude>-2.064254</Longitude>
        <Latitude>53.488334</Latitude>
      </Location>
    </AnnotatedStopPointRef>
    <AnnotatedStopPointRef>
      <StopPointRef>1800NB40851</StopPointRef>
      <CommonName>Ash Tree Road</CommonName>
      <Location>
        <Longitude>-2.235174</Longitude>
        <Latitude>53.512712</Latitude>
      </Location>
    </AnnotatedStopPointRef>
    <AnnotatedStopPointRef>
      <StopPointRef>1800NB40861</StopPointRef>
      <CommonName>Ash Tree Road</CommonName>
      <Location>
        <Longitude>-2.235444</Longitude>
        <Latitude>53.512577</Latitude>
      </Location>
    </AnnotatedStopPointRef>
    <AnnotatedStopPointRef>
      <StopPointRef>1800SJ01611</StopPointRef>
      <CommonName>Ashburton Road West</CommonName>
      <Location>
        <Longitude>-2.333461</Longitude>
        <Latitude>53.474106</Latitude>
      </Location>
    </AnnotatedStopPointRef>
    <AnnotatedStopPointRef>
      <StopPointRef>1800SJ01601</StopPointRef>
      <CommonName>Ashburton Road West</CommonName>
      <Location>
        <Longitude>-2.333775</Longitude>
        <Latitude>53.473773</Latitude>
      </Location>
    </AnnotatedStopPointRef>
    <AnnotatedStopPointRef>
      <StopPointRef>1800WK01111</StopPointRef>
      <CommonName>Ashfield Avenue</CommonName>
      <Location>
        <Longitude>-2.559579</Longitude>
        <Latitude>53.527192</Latitude>
      </Location>
    </AnnotatedStopPointRef>
    <AnnotatedStopPointRef>
      <StopPointRef>1800ANIN0F1</StopPointRef>
      <CommonName>ASHTON Interchange</CommonName>
      <Location>
        <Longitude>-2.096781</Longitude>
        <Latitude>53.489984</Latitude>
      </Location>
    </AnnotatedStopPointRef>
    <AnnotatedStopPointRef>
      <StopPointRef>1800ANIN0J1</StopPointRef>
      <CommonName>ASHTON Interchange</CommonName>
      <Location>
        <Longitude>-2.096705</Longitude>
        <Latitude>53.489768</Latitude>
      </Location>
    </AnnotatedStopPointRef>
    <AnnotatedStopPointRef>
      <StopPointRef>1800ED27841</StopPointRef>
      <CommonName>Ashton Rd/Bellfield Avenue</CommonName>
      <Location>
        <Longitude>-2.110340</Longitude>
        <Latitude>53.522762</Latitude>
      </Location>
    </AnnotatedStopPointRef>
    <AnnotatedStopPointRef>
      <StopPointRef>1800ED27851</StopPointRef>
      <CommonName>Ashton Rd/Bellfield Avenue</CommonName>
      <Location>
        <Longitude>-2.110326</Longitude>
        <Latitude>53.523166</Latitude>
      </Location>
    </AnnotatedStopPointRef>
    <AnnotatedStopPointRef>
      <StopPointRef>1800WK01101</StopPointRef>
      <CommonName>Askwith Road</CommonName>
      <Location>
        <Longitude>-2.561712</Longitude>
        <Latitude>53.527676</Latitude>
      </Location>
    </AnnotatedStopPointRef>
    <AnnotatedStopPointRef>
      <StopPointRef>1800WK33651</StopPointRef>
      <CommonName>Aspull Common</CommonName>
      <Location>
        <Longitude>-2.581156</Longitude>
        <Latitude>53.566135</Latitude>
      </Location>
    </AnnotatedStopPointRef>
    <AnnotatedStopPointRef>
      <StopPointRef>1800WK33641</StopPointRef>
      <CommonName>Aspull Common</CommonName>
      <Location>
        <Longitude>-2.582342</Longitude>
        <Latitude>53.566732</Latitude>
      </Location>
    </AnnotatedStopPointRef>
    <AnnotatedStopPointRef>
      <StopPointRef>1800WK06831</StopPointRef>
      <CommonName>Aspull Moorgate Inn</CommonName>
      <Location>
        <Longitude>-2.583030</Longitude>
        <Latitude>53.570656</Latitude>
      </Location>
    </AnnotatedStopPointRef>
    <AnnotatedStopPointRef>
      <StopPointRef>1800WK06881</StopPointRef>
      <CommonName>Aspull Moorgate Inn</CommonName>
      <Location>
        <Longitude>-2.583044</Longitude>
        <Latitude>53.570539</Latitude>
      </Location>
    </AnnotatedStopPointRef>
    <AnnotatedStopPointRef>
      <StopPointRef>1800EB03761</StopPointRef>
      <CommonName>Assembly Hall</CommonName>
      <Location>
        <Longitude>-2.197921</Longitude>
        <Latitude>53.443631</Latitude>
      </Location>
    </AnnotatedStopPointRef>
    <AnnotatedStopPointRef>
      <StopPointRef>1800WK32121</StopPointRef>
      <CommonName>Astley Miner's Arms</CommonName>
      <Location>
        <Longitude>-2.459941</Longitude>
        <Latitude>53.499178</Latitude>
      </Location>
    </AnnotatedStopPointRef>
    <AnnotatedStopPointRef>
      <StopPointRef>1800WK32111</StopPointRef>
      <CommonName>Astley Miner's Arms</CommonName>
      <Location>
        <Longitude>-2.459778</Longitude>
        <Latitude>53.499475</Latitude>
      </Location>
    </AnnotatedStopPointRef>
    <AnnotatedStopPointRef>
      <StopPointRef>1800WK32001</StopPointRef>
      <CommonName>Astley Straits</CommonName>
      <Location>
        <Longitude>-2.453439</Longitude>
        <Latitude>53.501593</Latitude>
      </Location>
    </AnnotatedStopPointRef>
    <AnnotatedStopPointRef>
      <StopPointRef>1800WK05671</StopPointRef>
      <CommonName>Astley Straits</CommonName>
      <Location>
        <Longitude>-2.453167</Longitude>
        <Latitude>53.501513</Latitude>
      </Location>
    </AnnotatedStopPointRef>
    <AnnotatedStopPointRef>
      <StopPointRef>1800WK31071</StopPointRef>
      <CommonName>Atherton Arms</CommonName>
      <Location>
        <Longitude>-2.489130</Longitude>
        <Latitude>53.523097</Latitude>
      </Location>
    </AnnotatedStopPointRef>
    <AnnotatedStopPointRef>
      <StopPointRef>1800WK31061</StopPointRef>
      <CommonName>Atherton Arms</CommonName>
      <Location>
        <Longitude>-2.489645</Longitude>
        <Latitude>53.523266</Latitude>
      </Location>
    </AnnotatedStopPointRef>
    <AnnotatedStopPointRef>
      <StopPointRef>1800WK30771</StopPointRef>
      <CommonName>Atherton Market St/Sumner St</CommonName>
      <Location>
        <Longitude>-2.497263</Longitude>
        <Latitude>53.523315</Latitude>
      </Location>
    </AnnotatedStopPointRef>
    <AnnotatedStopPointRef>
      <StopPointRef>1800WK30821</StopPointRef>
      <CommonName>Atherton Mealhouse Ln</CommonName>
      <Location>
        <Longitude>-2.491334</Longitude>
        <Latitude>53.524544</Latitude>
      </Location>
    </AnnotatedStopPointRef>
    <AnnotatedStopPointRef>
      <StopPointRef>1800WK30791</StopPointRef>
      <CommonName>Atherton Punch Bowl</CommonName>
      <Location>
        <Longitude>-2.498458</Longitude>
        <Latitude>53.523634</Latitude>
      </Location>
    </AnnotatedStopPointRef>
    <AnnotatedStopPointRef>
      <StopPointRef>1800WK01131</StopPointRef>
      <CommonName>Atherton Road</CommonName>
      <Location>
        <Longitude>-2.564567</Longitude>
        <Latitude>53.529047</Latitude>
      </Location>
    </AnnotatedStopPointRef>
    <AnnotatedStopPointRef>
      <StopPointRef>1800EH20951</StopPointRef>
      <CommonName>Atlas Street</CommonName>
      <Location>
        <Longitude>-2.102267</Longitude>
        <Latitude>53.496316</Latitude>
      </Location>
    </AnnotatedStopPointRef>
    <AnnotatedStopPointRef>
      <StopPointRef>1800EH20961</StopPointRef>
      <CommonName>Atlas Street</CommonName>
      <Location>
        <Longitude>-2.102011</Longitude>
        <Latitude>53.496254</Latitude>
      </Location>
    </AnnotatedStopPointRef>
    <AnnotatedStopPointRef>
      <StopPointRef>1800WAH3951</StopPointRef>
      <CommonName>Avonhead Close</CommonName>
      <Location>
        <Longitude>-2.557882</Longitude>
        <Latitude>53.595431</Latitude>
      </Location>
    </AnnotatedStopPointRef>
    <AnnotatedStopPointRef>
      <StopPointRef>1800SJ30191</StopPointRef>
      <CommonName>Ayres Road</CommonName>
      <Location>
        <Longitude>-2.274593</Longitude>
        <Latitude>53.456845</Latitude>
      </Location>
    </AnnotatedStopPointRef>
    <AnnotatedStopPointRef>
      <StopPointRef>1800WK30891</StopPointRef>
      <CommonName>Bag Lane</CommonName>
      <Location>
        <Longitude>-2.495902</Longitude>
        <Latitude>53.524291</Latitude>
      </Location>
    </AnnotatedStopPointRef>
    <AnnotatedStopPointRef>
      <StopPointRef>1800SB41751</StopPointRef>
      <CommonName>Baguley Brookway HS</CommonName>
      <Location>
        <Longitude>-2.301530</Longitude>
        <Latitude>53.400944</Latitude>
      </Location>
    </AnnotatedStopPointRef>
    <AnnotatedStopPointRef>
      <StopPointRef>1800SB41731</StopPointRef>
      <CommonName>Baguley Tesco</CommonName>
      <Location>
        <Longitude>-2.295904</Longitude>
        <Latitude>53.400814</Latitude>
      </Location>
    </AnnotatedStopPointRef>
    <AnnotatedStopPointRef>
      <StopPointRef>1800NF01351</StopPointRef>
      <CommonName>Balfour Street</CommonName>
      <Location>
        <Longitude>-2.288437</Longitude>
        <Latitude>53.501935</Latitude>
      </Location>
    </AnnotatedStopPointRef>
    <AnnotatedStopPointRef>
      <StopPointRef>1800NF01361</StopPointRef>
      <CommonName>Balfour Street</CommonName>
      <Location>
        <Longitude>-2.287349</Longitude>
        <Latitude>53.501551</Latitude>
      </Location>
    </AnnotatedStopPointRef>
    <AnnotatedStopPointRef>
      <StopPointRef>1800NF09021</StopPointRef>
      <CommonName>Bank Lane</CommonName>
      <Location>
        <Longitude>-2.306597</Longitude>
        <Latitude>53.500964</Latitude>
      </Location>
    </AnnotatedStopPointRef>
    <AnnotatedStopPointRef>
      <StopPointRef>1800NF09011</StopPointRef>
      <CommonName>Bank Lane</CommonName>
      <Location>
        <Longitude>-2.306566</Longitude>
        <Latitude>53.500847</Latitude>
      </Location>
    </AnnotatedStopPointRef>
    <AnnotatedStopPointRef>
      <StopPointRef>1800EB13811</StopPointRef>
      <CommonName>Barcicroft Road</CommonName>
      <Location>
        <Longitude>-2.211913</Longitude>
        <Latitude>53.423527</Latitude>
      </Location>
    </AnnotatedStopPointRef>
    <AnnotatedStopPointRef>
      <StopPointRef>1800EH21561</StopPointRef>
      <CommonName>Bardsley Bridge</CommonName>
      <Location>
        <Longitude>-2.106319</Longitude>
        <Latitude>53.506982</Latitude>
      </Location>
    </AnnotatedStopPointRef>
    <AnnotatedStopPointRef>
      <StopPointRef>1800EH21551</StopPointRef>
      <CommonName>Bardsley Bridge</CommonName>
      <Location>
        <Longitude>-2.106819</Longitude>
        <Latitude>53.508150</Latitude>
      </Location>
    </AnnotatedStopPointRef>
    <AnnotatedStopPointRef>
      <StopPointRef>1800SB16571</StopPointRef>
      <CommonName>Barlow Hall Road</CommonName>
      <Location>
        <Longitude>-2.266724</Longitude>
        <Latitude>53.426806</Latitude>
      </Location>
    </AnnotatedStopPointRef>
    <AnnotatedStopPointRef>
      <StopPointRef>1800SB16561</StopPointRef>
      <CommonName>Barlow Hall Road</CommonName>
      <Location>
        <Longitude>-2.267206</Longitude>
        <Latitude>53.426877</Latitude>
      </Location>
    </AnnotatedStopPointRef>
    <AnnotatedStopPointRef>
      <StopPointRef>1800SB33811</StopPointRef>
      <CommonName>Barlow Moor Court</CommonName>
      <Location>
        <Longitude>-2.248658</Longitude>
        <Latitude>53.423034</Latitude>
      </Location>
    </AnnotatedStopPointRef>
    <AnnotatedStopPointRef>
      <StopPointRef>1800SB33821</StopPointRef>
      <CommonName>Barlow Moor Road</CommonName>
      <Location>
        <Longitude>-2.246926</Longitude>
        <Latitude>53.422830</Latitude>
      </Location>
    </AnnotatedStopPointRef>
    <AnnotatedStopPointRef>
      <StopPointRef>1800SB32831</StopPointRef>
      <CommonName>Barlow Moor Road Metrolink Stop</CommonName>
      <Location>
        <Longitude>-2.271052</Longitude>
        <Latitude>53.433052</Latitude>
      </Location>
    </AnnotatedStopPointRef>
    <AnnotatedStopPointRef>
      <StopPointRef>1800SBH0351</StopPointRef>
      <CommonName>Barlow RC High School</CommonName>
      <Location>
        <Longitude>-2.219772</Longitude>
        <Latitude>53.415612</Latitude>
      </Location>
    </AnnotatedStopPointRef>
    <AnnotatedStopPointRef>
      <StopPointRef>1800WK07741</StopPointRef>
      <CommonName>Barrie Street</CommonName>
      <Location>
        <Longitude>-2.533842</Longitude>
        <Latitude>53.511472</Latitude>
      </Location>
    </AnnotatedStopPointRef>
    <AnnotatedStopPointRef>
      <StopPointRef>1800NF28691</StopPointRef>
      <CommonName>Barton Road</CommonName>
      <Location>
        <Longitude>-2.355240</Longitude>
        <Latitude>53.475032</Latitude>
      </Location>
    </AnnotatedStopPointRef>
    <AnnotatedStopPointRef>
      <StopPointRef>1800NF01551</StopPointRef>
      <CommonName>Barton Road</CommonName>
      <Location>
        <Longitude>-2.355075</Longitude>
        <Latitude>53.475203</Latitude>
      </Location>
    </AnnotatedStopPointRef>
    <AnnotatedStopPointRef>
      <StopPointRef>1800WK06671</StopPointRef>
      <CommonName>Battersby Street</CommonName>
      <Location>
        <Longitude>-2.597209</Longitude>
        <Latitude>53.547027</Latitude>
      </Location>
    </AnnotatedStopPointRef>
    <AnnotatedStopPointRef>
      <StopPointRef>1800NC42291</StopPointRef>
      <CommonName>Beaufort Street</CommonName>
      <Location>
        <Longitude>-2.269614</Longitude>
        <Latitude>53.529106</Latitude>
      </Location>
    </AnnotatedStopPointRef>
    <AnnotatedStopPointRef>
      <StopPointRef>1800NC42261</StopPointRef>
      <CommonName>Beaufort Street</CommonName>
      <Location>
        <Longitude>-2.268816</Longitude>
        <Latitude>53.529341</Latitude>
      </Location>
    </AnnotatedStopPointRef>
    <AnnotatedStopPointRef>
      <StopPointRef>1800SB14911</StopPointRef>
      <CommonName>Beaver Road School</CommonName>
      <Location>
        <Longitude>-2.230960</Longitude>
        <Latitude>53.411806</Latitude>
      </Location>
    </AnnotatedStopPointRef>
    <AnnotatedStopPointRef>
      <StopPointRef>1800SB45591</StopPointRef>
      <CommonName>Beckfield Road</CommonName>
      <Location>
        <Longitude>-2.285139</Longitude>
        <Latitude>53.390081</Latitude>
      </Location>
    </AnnotatedStopPointRef>
    <AnnotatedStopPointRef>
      <StopPointRef>1800SB09341</StopPointRef>
      <CommonName>Beckfield Road</CommonName>
      <Location>
        <Longitude>-2.284683</Longitude>
        <Latitude>53.389309</Latitude>
      </Location>
    </AnnotatedStopPointRef>
    <AnnotatedStopPointRef>
      <StopPointRef>1800NC42011</StopPointRef>
      <CommonName>Beckley Avenue</CommonName>
      <Location>
        <Longitude>-2.281971</Longitude>
        <Latitude>53.520224</Latitude>
      </Location>
    </AnnotatedStopPointRef>
    <AnnotatedStopPointRef>
      <StopPointRef>1800NC04031</StopPointRef>
      <CommonName>Beckley Avenue</CommonName>
      <Location>
        <Longitude>-2.281084</Longitude>
        <Latitude>53.520720</Latitude>
      </Location>
    </AnnotatedStopPointRef>
    <AnnotatedStopPointRef>
      <StopPointRef>1800WK37181</StopPointRef>
      <CommonName>Bedford High School</CommonName>
      <Location>
        <Longitude>-2.490171</Longitude>
        <Latitude>53.494356</Latitude>
      </Location>
    </AnnotatedStopPointRef>
    <AnnotatedStopPointRef>
      <StopPointRef>1800WK37191</StopPointRef>
      <CommonName>Bedford High School</CommonName>
      <Location>
        <Longitude>-2.488843</Longitude>
        <Latitude>53.494254</Latitude>
      </Location>
    </AnnotatedStopPointRef>
    <AnnotatedStopPointRef>
      <StopPointRef>1800NF28771</StopPointRef>
      <CommonName>Beech Street</CommonName>
      <Location>
        <Longitude>-2.365780</Longitude>
        <Latitude>53.479611</Latitude>
      </Location>
    </AnnotatedStopPointRef>
    <AnnotatedStopPointRef>
      <StopPointRef>1800SB34101</StopPointRef>
      <CommonName>Belfield Road</CommonName>
      <Location>
        <Longitude>-2.232224</Longitude>
        <Latitude>53.419975</Latitude>
      </Location>
    </AnnotatedStopPointRef>
    <AnnotatedStopPointRef>
      <StopPointRef>1800SB34091</StopPointRef>
      <CommonName>Belfield Road</CommonName>
      <Location>
        <Longitude>-2.231952</Longitude>
        <Latitude>53.419795</Latitude>
      </Location>
    </AnnotatedStopPointRef>
    <AnnotatedStopPointRef>
      <StopPointRef>1800WK15711</StopPointRef>
      <CommonName>Belle Green Lane</CommonName>
      <Location>
        <Longitude>-2.600807</Longitude>
        <Latitude>53.546407</Latitude>
      </Location>
    </AnnotatedStopPointRef>
    <AnnotatedStopPointRef>
      <StopPointRef>1800WK10481</StopPointRef>
      <CommonName>Belle Green Lane</CommonName>
      <Location>
        <Longitude>-2.600866</Longitude>
        <Latitude>53.546344</Latitude>
      </Location>
    </AnnotatedStopPointRef>
    <AnnotatedStopPointRef>
      <StopPointRef>1800WK06661</StopPointRef>
      <CommonName>Belle Green Lane</CommonName>
      <Location>
        <Longitude>-2.596274</Longitude>
        <Latitude>53.547104</Latitude>
      </Location>
    </AnnotatedStopPointRef>
    <AnnotatedStopPointRef>
      <StopPointRef>1800WK06631</StopPointRef>
      <CommonName>Belle Green Rd/Windermere Rd</CommonName>
      <Location>
        <Longitude>-2.595568</Longitude>
        <Latitude>53.545166</Latitude>
      </Location>
    </AnnotatedStopPointRef>
    <AnnotatedStopPointRef>
      <StopPointRef>1800WK06621</StopPointRef>
      <CommonName>Belle Green Rd/Windermere Rd</CommonName>
      <Location>
        <Longitude>-2.595923</Longitude>
        <Latitude>53.544661</Latitude>
      </Location>
    </AnnotatedStopPointRef>
    <AnnotatedStopPointRef>
      <StopPointRef>1800EB02801</StopPointRef>
      <CommonName>Belle Vue</CommonName>
      <Location>
        <Longitude>-2.181996</Longitude>
        <Latitude>53.461804</Latitude>
      </Location>
    </AnnotatedStopPointRef>
    <AnnotatedStopPointRef>
      <StopPointRef>1800EB00281</StopPointRef>
      <CommonName>Belle Vue Railway Station</CommonName>
      <Location>
        <Longitude>-2.180371</Longitude>
        <Latitude>53.462373</Latitude>
      </Location>
    </AnnotatedStopPointRef>
    <AnnotatedStopPointRef>
      <StopPointRef>1800EB22021</StopPointRef>
      <CommonName>Ben Brierley</CommonName>
      <Location>
        <Longitude>-2.196574</Longitude>
        <Latitude>53.513663</Latitude>
      </Location>
    </AnnotatedStopPointRef>
    <AnnotatedStopPointRef>
      <StopPointRef>1800SB18081</StopPointRef>
      <CommonName>Benchill Tram Stop</CommonName>
      <Location>
        <Longitude>-2.258200</Longitude>
        <Latitude>53.388614</Latitude>
      </Location>
    </AnnotatedStopPointRef>
    <AnnotatedStopPointRef>
      <StopPointRef>1800SB18071</StopPointRef>
      <CommonName>Benchill Tram Stop</CommonName>
      <Location>
        <Longitude>-2.257537</Longitude>
        <Latitude>53.388373</Latitude>
      </Location>
    </AnnotatedStopPointRef>
    <AnnotatedStopPointRef>
      <StopPointRef>1800WK36131</StopPointRef>
      <CommonName>Bexhill Drive</CommonName>
      <Location>
        <Longitude>-2.535957</Longitude>
        <Latitude>53.522536</Latitude>
      </Location>
    </AnnotatedStopPointRef>
    <AnnotatedStopPointRef>
      <StopPointRef>1800WK36141</StopPointRef>
      <CommonName>Bexhill Drive</CommonName>
      <Location>
        <Longitude>-2.535310</Longitude>
        <Latitude>53.522629</Latitude>
      </Location>
    </AnnotatedStopPointRef>
    <AnnotatedStopPointRef>
      <StopPointRef>1800WA43851</StopPointRef>
      <CommonName>Bideford Drive</CommonName>
      <Location>
        <Longitude>-2.375583</Longitude>
        <Latitude>53.574265</Latitude>
      </Location>
    </AnnotatedStopPointRef>
    <AnnotatedStopPointRef>
      <StopPointRef>1800WA43841</StopPointRef>
      <CommonName>Bideford Drive</CommonName>
      <Location>
        <Longitude>-2.375490</Longitude>
        <Latitude>53.574014</Latitude>
      </Location>
    </AnnotatedStopPointRef>
    <AnnotatedStopPointRef>
      <StopPointRef>1800NF30371</StopPointRef>
      <CommonName>Bindloss Avenue</CommonName>
      <Location>
        <Longitude>-2.329368</Longitude>
        <Latitude>53.488274</Latitude>
      </Location>
    </AnnotatedStopPointRef>
    <AnnotatedStopPointRef>
      <StopPointRef>1800NF30361</StopPointRef>
      <CommonName>Bindloss Avenue</CommonName>
      <Location>
        <Longitude>-2.330088</Longitude>
        <Latitude>53.487913</Latitude>
      </Location>
    </AnnotatedStopPointRef>
    <AnnotatedStopPointRef>
      <StopPointRef>1800WK46211</StopPointRef>
      <CommonName>Bird Street</CommonName>
      <Location>
        <Longitude>-2.607539</Longitude>
        <Latitude>53.544396</Latitude>
      </Location>
    </AnnotatedStopPointRef>
    <AnnotatedStopPointRef>
      <StopPointRef>1800WK03521</StopPointRef>
      <CommonName>Birkett Bank</CommonName>
      <Location>
        <Longitude>-2.615073</Longitude>
        <Latitude>53.544600</Latitude>
      </Location>
    </AnnotatedStopPointRef>
    <AnnotatedStopPointRef>
      <StopPointRef>1800WA42751</StopPointRef>
      <CommonName>Bishops Road</CommonName>
      <Location>
        <Longitude>-2.421486</Longitude>
        <Latitude>53.557034</Latitude>
      </Location>
    </AnnotatedStopPointRef>
    <AnnotatedStopPointRef>
      <StopPointRef>1800WA34011</StopPointRef>
      <CommonName>Blackrod Black Horse</CommonName>
      <Location>
        <Longitude>-2.587342</Longitude>
        <Latitude>53.595245</Latitude>
      </Location>
    </AnnotatedStopPointRef>
    <AnnotatedStopPointRef>
      <StopPointRef>1800WA34001</StopPointRef>
      <CommonName>Blackrod Black Horse</CommonName>
      <Location>
        <Longitude>-2.587431</Longitude>
        <Latitude>53.595119</Latitude>
      </Location>
    </AnnotatedStopPointRef>
    <AnnotatedStopPointRef>
      <StopPointRef>1800WA02701</StopPointRef>
      <CommonName>Blackrod Bypass</CommonName>
      <Location>
        <Longitude>-2.590786</Longitude>
        <Latitude>53.599507</Latitude>
      </Location>
    </AnnotatedStopPointRef>
    <AnnotatedStopPointRef>
      <StopPointRef>1800WA34081</StopPointRef>
      <CommonName>Blackrod Green Barn</CommonName>
      <Location>
        <Longitude>-2.573786</Longitude>
        <Latitude>53.587204</Latitude>
      </Location>
    </AnnotatedStopPointRef>
    <AnnotatedStopPointRef>
      <StopPointRef>1800WA34091</StopPointRef>
      <CommonName>Blackrod Green Barn</CommonName>
      <Location>
        <Longitude>-2.573722</Longitude>
        <Latitude>53.586925</Latitude>
      </Location>
    </AnnotatedStopPointRef>
    <AnnotatedStopPointRef>
      <StopPointRef>1800WA20141</StopPointRef>
      <CommonName>Blackrod Station</CommonName>
      <Location>
        <Longitude>-2.568411</Longitude>
        <Latitude>53.590744</Latitude>
      </Location>
    </AnnotatedStopPointRef>
    <AnnotatedStopPointRef>
      <StopPointRef>1800WA20001</StopPointRef>
      <CommonName>Blackrod Station</CommonName>
      <Location>
        <Longitude>-2.567629</Longitude>
        <Latitude>53.591035</Latitude>
      </Location>
    </AnnotatedStopPointRef>
    <AnnotatedStopPointRef>
      <StopPointRef>1800WA02631</StopPointRef>
      <CommonName>Blacrod Bypass</CommonName>
      <Location>
        <Longitude>-2.589869</Longitude>
        <Latitude>53.598747</Latitude>
      </Location>
    </AnnotatedStopPointRef>
    <AnnotatedStopPointRef>
      <StopPointRef>1800WK30531</StopPointRef>
      <CommonName>Blake Avenue</CommonName>
      <Location>
        <Longitude>-2.485964</Longitude>
        <Latitude>53.533734</Latitude>
      </Location>
    </AnnotatedStopPointRef>
    <AnnotatedStopPointRef>
      <StopPointRef>1800WK11161</StopPointRef>
      <CommonName>Blake Avenue</CommonName>
      <Location>
        <Longitude>-2.485947</Longitude>
        <Latitude>53.533581</Latitude>
      </Location>
    </AnnotatedStopPointRef>
    <AnnotatedStopPointRef>
      <StopPointRef>1800WA43921</StopPointRef>
      <CommonName>Blenheim Road</CommonName>
      <Location>
        <Longitude>-2.388682</Longitude>
        <Latitude>53.576587</Latitude>
      </Location>
    </AnnotatedStopPointRef>
    <AnnotatedStopPointRef>
      <StopPointRef>1800WA43671</StopPointRef>
      <CommonName>Blenheim Road</CommonName>
      <Location>
        <Longitude>-2.393051</Longitude>
        <Latitude>53.578685</Latitude>
      </Location>
    </AnnotatedStopPointRef>
    <AnnotatedStopPointRef>
      <StopPointRef>1800SJ40911</StopPointRef>
      <CommonName>Bloomsbury Lane</CommonName>
      <Location>
        <Longitude>-2.321919</Longitude>
        <Latitude>53.396279</Latitude>
      </Location>
    </AnnotatedStopPointRef>
    <AnnotatedStopPointRef>
      <StopPointRef>1800WA34631</StopPointRef>
      <CommonName>Blue Bell Cottages</CommonName>
      <Location>
        <Longitude>-2.538558</Longitude>
        <Latitude>53.564636</Latitude>
      </Location>
    </AnnotatedStopPointRef>
    <AnnotatedStopPointRef>
      <StopPointRef>1800WA34621</StopPointRef>
      <CommonName>Blue Bell Cottages</CommonName>
      <Location>
        <Longitude>-2.538272</Longitude>
        <Latitude>53.564655</Latitude>
      </Location>
    </AnnotatedStopPointRef>
    <AnnotatedStopPointRef>
      <StopPointRef>1800WK30641</StopPointRef>
      <CommonName>Bolton Boundary</CommonName>
      <Location>
        <Longitude>-2.472149</Longitude>
        <Latitude>53.531488</Latitude>
      </Location>
    </AnnotatedStopPointRef>
    <AnnotatedStopPointRef>
      <StopPointRef>1800WA15231</StopPointRef>
      <CommonName>Bolton Road</CommonName>
      <Location>
        <Longitude>-2.380883</Longitude>
        <Latitude>53.542322</Latitude>
      </Location>
    </AnnotatedStopPointRef>
    <AnnotatedStopPointRef>
      <StopPointRef>1800WA03331</StopPointRef>
      <CommonName>Bolton Road</CommonName>
      <Location>
        <Longitude>-2.400152</Longitude>
        <Latitude>53.554932</Latitude>
      </Location>
    </AnnotatedStopPointRef>
    <AnnotatedStopPointRef>
      <StopPointRef>1800WA41511</StopPointRef>
      <CommonName>Bolton Road</CommonName>
      <Location>
        <Longitude>-2.381215</Longitude>
        <Latitude>53.542365</Latitude>
      </Location>
    </AnnotatedStopPointRef>
    <AnnotatedStopPointRef>
      <StopPointRef>1800WK30681</StopPointRef>
      <CommonName>Bolton Road</CommonName>
      <Location>
        <Longitude>-2.481148</Longitude>
        <Latitude>53.528109</Latitude>
      </Location>
    </AnnotatedStopPointRef>
    <AnnotatedStopPointRef>
      <StopPointRef>1800WK30731</StopPointRef>
      <CommonName>Bolton Road</CommonName>
      <Location>
        <Longitude>-2.488021</Longitude>
        <Latitude>53.525025</Latitude>
      </Location>
    </AnnotatedStopPointRef>
    <AnnotatedStopPointRef>
      <StopPointRef>1800WF21211</StopPointRef>
      <CommonName>Boothby Road</CommonName>
      <Location>
        <Longitude>-2.347495</Longitude>
        <Latitude>53.515467</Latitude>
      </Location>
    </AnnotatedStopPointRef>
    <AnnotatedStopPointRef>
      <StopPointRef>1800NF27901</StopPointRef>
      <CommonName>Booths Hall Road</CommonName>
      <Location>
        <Longitude>-2.415275</Longitude>
        <Latitude>53.502334</Latitude>
      </Location>
    </AnnotatedStopPointRef>
    <AnnotatedStopPointRef>
      <StopPointRef>1800NFH4991</StopPointRef>
      <CommonName>Boothshall Way</CommonName>
      <Location>
        <Longitude>-2.413001</Longitude>
        <Latitude>53.501084</Latitude>
      </Location>
    </AnnotatedStopPointRef>
    <AnnotatedStopPointRef>
      <StopPointRef>1800NFH4971</StopPointRef>
      <CommonName>Boothshall Way</CommonName>
      <Location>
        <Longitude>-2.420717</Longitude>
        <Latitude>53.500769</Latitude>
      </Location>
    </AnnotatedStopPointRef>
    <AnnotatedStopPointRef>
      <StopPointRef>1800NFH5001</StopPointRef>
      <CommonName>Boothstown Boothshall Way</CommonName>
      <Location>
        <Longitude>-2.417292</Longitude>
        <Latitude>53.498966</Latitude>
      </Location>
    </AnnotatedStopPointRef>
    <AnnotatedStopPointRef>
      <StopPointRef>1800NF27871</StopPointRef>
      <CommonName>Boothstown Post Office</CommonName>
      <Location>
        <Longitude>-2.419530</Longitude>
        <Latitude>53.502733</Latitude>
      </Location>
    </AnnotatedStopPointRef>
    <AnnotatedStopPointRef>
      <StopPointRef>1800NF27861</StopPointRef>
      <CommonName>Boothstown Post Office</CommonName>
      <Location>
        <Longitude>-2.419966</Longitude>
        <Latitude>53.502561</Latitude>
      </Location>
    </AnnotatedStopPointRef>
    <AnnotatedStopPointRef>
      <StopPointRef>1800NF27881</StopPointRef>
      <CommonName>Boothstown Precinct</CommonName>
      <Location>
        <Longitude>-2.416362</Longitude>
        <Latitude>53.502510</Latitude>
      </Location>
    </AnnotatedStopPointRef>
    <AnnotatedStopPointRef>
      <StopPointRef>1800SG19131</StopPointRef>
      <CommonName>Boots</CommonName>
      <Location>
        <Longitude>-2.214793</Longitude>
        <Latitude>53.394875</Latitude>
      </Location>
    </AnnotatedStopPointRef>
    <AnnotatedStopPointRef>
      <StopPointRef>1800NF10351</StopPointRef>
      <CommonName>Borough Road</CommonName>
      <Location>
        <Longitude>-2.308155</Longitude>
        <Latitude>53.480943</Latitude>
      </Location>
    </AnnotatedStopPointRef>
    <AnnotatedStopPointRef>
      <StopPointRef>1800WK01141</StopPointRef>
      <CommonName>Borsdane Avenue</CommonName>
      <Location>
        <Longitude>-2.567243</Longitude>
        <Latitude>53.529502</Latitude>
      </Location>
    </AnnotatedStopPointRef>
    <AnnotatedStopPointRef>
      <StopPointRef>1800WK07101</StopPointRef>
      <CommonName>Borsdane Avenue</CommonName>
      <Location>
        <Longitude>-2.569815</Longitude>
        <Latitude>53.530092</Latitude>
      </Location>
    </AnnotatedStopPointRef>
    <AnnotatedStopPointRef>
      <StopPointRef>1800SB33281</StopPointRef>
      <CommonName>Bosley Avenue</CommonName>
      <Location>
        <Longitude>-2.239860</Longitude>
        <Latitude>53.440067</Latitude>
      </Location>
    </AnnotatedStopPointRef>
    <AnnotatedStopPointRef>
      <StopPointRef>1800SG13891</StopPointRef>
      <CommonName>Boundary Bridge</CommonName>
      <Location>
        <Longitude>-2.197936</Longitude>
        <Latitude>53.398302</Latitude>
      </Location>
    </AnnotatedStopPointRef>
    <AnnotatedStopPointRef>
      <StopPointRef>1800NC23411</StopPointRef>
      <CommonName>Boundary Drive</CommonName>
      <Location>
        <Longitude>-2.367657</Longitude>
        <Latitude>53.571144</Latitude>
      </Location>
    </AnnotatedStopPointRef>
    <AnnotatedStopPointRef>
      <StopPointRef>1800EH20931</StopPointRef>
      <CommonName>Bradbury Street</CommonName>
      <Location>
        <Longitude>-2.101102</Longitude>
        <Latitude>53.494564</Latitude>
      </Location>
    </AnnotatedStopPointRef>
    <AnnotatedStopPointRef>
      <StopPointRef>1800WA42621</StopPointRef>
      <CommonName>Bradford Road</CommonName>
      <Location>
        <Longitude>-2.420300</Longitude>
        <Latitude>53.553092</Latitude>
      </Location>
    </AnnotatedStopPointRef>
    <AnnotatedStopPointRef>
      <StopPointRef>1800WA42631</StopPointRef>
      <CommonName>Bradford Road</CommonName>
      <Location>
        <Longitude>-2.420421</Longitude>
        <Latitude>53.553146</Latitude>
      </Location>
    </AnnotatedStopPointRef>
    <AnnotatedStopPointRef>
      <StopPointRef>1800WA10661</StopPointRef>
      <CommonName>Bradford Road</CommonName>
      <Location>
        <Longitude>-2.419218</Longitude>
        <Latitude>53.548971</Latitude>
      </Location>
    </AnnotatedStopPointRef>
    <AnnotatedStopPointRef>
      <StopPointRef>1800SGH0251</StopPointRef>
      <CommonName>Branksome Road</CommonName>
      <Location>
        <Longitude>-2.185299</Longitude>
        <Latitude>53.411041</Latitude>
      </Location>
    </AnnotatedStopPointRef>
    <AnnotatedStopPointRef>
      <StopPointRef>1800SGH3821</StopPointRef>
      <CommonName>Branksome Road</CommonName>
      <Location>
        <Longitude>-2.185524</Longitude>
        <Latitude>53.411050</Latitude>
      </Location>
    </AnnotatedStopPointRef>
    <AnnotatedStopPointRef>
      <StopPointRef>1800SG15191</StopPointRef>
      <CommonName>Brayston Gardens</CommonName>
      <Location>
        <Longitude>-2.226409</Longitude>
        <Latitude>53.393236</Latitude>
      </Location>
    </AnnotatedStopPointRef>
    <AnnotatedStopPointRef>
      <StopPointRef>1800SG15181</StopPointRef>
      <CommonName>Brayston Gardens</CommonName>
      <Location>
        <Longitude>-2.226767</Longitude>
        <Latitude>53.392831</Latitude>
      </Location>
    </AnnotatedStopPointRef>
    <AnnotatedStopPointRef>
      <StopPointRef>1800WA43901</StopPointRef>
      <CommonName>Breightmet Drive</CommonName>
      <Location>
        <Longitude>-2.387150</Longitude>
        <Latitude>53.577464</Latitude>
      </Location>
    </AnnotatedStopPointRef>
    <AnnotatedStopPointRef>
      <StopPointRef>1800WA43911</StopPointRef>
      <CommonName>Breightmet Drive</CommonName>
      <Location>
        <Longitude>-2.387539</Longitude>
        <Latitude>53.577094</Latitude>
      </Location>
    </AnnotatedStopPointRef>
    <AnnotatedStopPointRef>
      <StopPointRef>1800WA11631</StopPointRef>
      <CommonName>Breightmet Post Office</CommonName>
      <Location>
        <Longitude>-2.385836</Longitude>
        <Latitude>53.580812</Latitude>
      </Location>
    </AnnotatedStopPointRef>
    <AnnotatedStopPointRef>
      <StopPointRef>1800WA11641</StopPointRef>
      <CommonName>Breightmet Post Office</CommonName>
      <Location>
        <Longitude>-2.385702</Longitude>
        <Latitude>53.580983</Latitude>
      </Location>
    </AnnotatedStopPointRef>
    <AnnotatedStopPointRef>
      <StopPointRef>1800WA43771</StopPointRef>
      <CommonName>Breightmet, Slaidburn Ave</CommonName>
      <Location>
        <Longitude>-2.386049</Longitude>
        <Latitude>53.574394</Latitude>
      </Location>
    </AnnotatedStopPointRef>
    <AnnotatedStopPointRef>
      <StopPointRef>1800WA43761</StopPointRef>
      <CommonName>Breightmet, Slaidburn Ave</CommonName>
      <Location>
        <Longitude>-2.387309</Longitude>
        <Latitude>53.575037</Latitude>
      </Location>
    </AnnotatedStopPointRef>
    <AnnotatedStopPointRef>
      <StopPointRef>1800EB33531</StopPointRef>
      <CommonName>Brendon Avenue</CommonName>
      <Location>
        <Longitude>-2.191833</Longitude>
        <Latitude>53.508897</Latitude>
      </Location>
    </AnnotatedStopPointRef>
    <AnnotatedStopPointRef>
      <StopPointRef>1800EB13861</StopPointRef>
      <CommonName>Briarfield Road</CommonName>
      <Location>
        <Longitude>-2.209217</Longitude>
        <Latitude>53.429212</Latitude>
      </Location>
    </AnnotatedStopPointRef>
    <AnnotatedStopPointRef>
      <StopPointRef>1800WA42661</StopPointRef>
      <CommonName>Briarfield Road</CommonName>
      <Location>
        <Longitude>-2.420584</Longitude>
        <Latitude>53.549748</Latitude>
      </Location>
    </AnnotatedStopPointRef>
    <AnnotatedStopPointRef>
      <StopPointRef>1800WA15731</StopPointRef>
      <CommonName>Bridgeman Street</CommonName>
      <Location>
        <Longitude>-2.427128</Longitude>
        <Latitude>53.573157</Latitude>
      </Location>
    </AnnotatedStopPointRef>
    <AnnotatedStopPointRef>
      <StopPointRef>1800SB09461</StopPointRef>
      <CommonName>Bridgewater Hall</CommonName>
      <Location>
        <Longitude>-2.246264</Longitude>
        <Latitude>53.474938</Latitude>
      </Location>
    </AnnotatedStopPointRef>
    <AnnotatedStopPointRef>
      <StopPointRef>1800NF28301</StopPointRef>
      <CommonName>Bridgewater School</CommonName>
      <Location>
        <Longitude>-2.371148</Longitude>
        <Latitude>53.500754</Latitude>
      </Location>
    </AnnotatedStopPointRef>
    <AnnotatedStopPointRef>
      <StopPointRef>1800NF28291</StopPointRef>
      <CommonName>Bridgewater School</CommonName>
      <Location>
        <Longitude>-2.370997</Longitude>
        <Latitude>53.500700</Latitude>
      </Location>
    </AnnotatedStopPointRef>
    <AnnotatedStopPointRef>
      <StopPointRef>1800NFH0401</StopPointRef>
      <CommonName>Bridgewater Street</CommonName>
      <Location>
        <Longitude>-2.364414</Longitude>
        <Latitude>53.483723</Latitude>
      </Location>
    </AnnotatedStopPointRef>
    <AnnotatedStopPointRef>
      <StopPointRef>1800NFH1961</StopPointRef>
      <CommonName>Bridgewater Street</CommonName>
      <Location>
        <Longitude>-2.364489</Longitude>
        <Latitude>53.483642</Latitude>
      </Location>
    </AnnotatedStopPointRef>
    <AnnotatedStopPointRef>
      <StopPointRef>1800SJ01401</StopPointRef>
      <CommonName>Brightgate Way</CommonName>
      <Location>
        <Longitude>-2.325530</Longitude>
        <Latitude>53.459486</Latitude>
      </Location>
    </AnnotatedStopPointRef>
    <AnnotatedStopPointRef>
      <StopPointRef>1800NF09101</StopPointRef>
      <CommonName>Brindle Close</CommonName>
      <Location>
        <Longitude>-2.289271</Longitude>
        <Latitude>53.493735</Latitude>
      </Location>
    </AnnotatedStopPointRef>
    <AnnotatedStopPointRef>
      <StopPointRef>1800NF09111</StopPointRef>
      <CommonName>Brindle Close</CommonName>
      <Location>
        <Longitude>-2.290137</Longitude>
        <Latitude>53.494767</Latitude>
      </Location>
    </AnnotatedStopPointRef>
    <AnnotatedStopPointRef>
      <StopPointRef>1800WK13141</StopPointRef>
      <CommonName>British Legion Club</CommonName>
      <Location>
        <Longitude>-2.581198</Longitude>
        <Latitude>53.571402</Latitude>
      </Location>
    </AnnotatedStopPointRef>
    <AnnotatedStopPointRef>
      <StopPointRef>1800WA34071</StopPointRef>
      <CommonName>British Legion Club</CommonName>
      <Location>
        <Longitude>-2.575810</Longitude>
        <Latitude>53.589387</Latitude>
      </Location>
    </AnnotatedStopPointRef>
    <AnnotatedStopPointRef>
      <StopPointRef>1800WK34211</StopPointRef>
      <CommonName>British Legion Club</CommonName>
      <Location>
        <Longitude>-2.581152</Longitude>
        <Latitude>53.571348</Latitude>
      </Location>
    </AnnotatedStopPointRef>
    <AnnotatedStopPointRef>
      <StopPointRef>1800WA34061</StopPointRef>
      <CommonName>British Legion Club</CommonName>
      <Location>
        <Longitude>-2.575813</Longitude>
        <Latitude>53.589603</Latitude>
      </Location>
    </AnnotatedStopPointRef>
    <AnnotatedStopPointRef>
      <StopPointRef>1800NF09091</StopPointRef>
      <CommonName>Broad Street</CommonName>
      <Location>
        <Longitude>-2.288163</Longitude>
        <Latitude>53.492561</Latitude>
      </Location>
    </AnnotatedStopPointRef>
    <AnnotatedStopPointRef>
      <StopPointRef>1800SB31451</StopPointRef>
      <CommonName>Broadfield Road</CommonName>
      <Location>
        <Longitude>-2.239224</Longitude>
        <Latitude>53.458081</Latitude>
      </Location>
    </AnnotatedStopPointRef>
    <AnnotatedStopPointRef>
      <StopPointRef>1800WA33511</StopPointRef>
      <CommonName>Broadhurst Farm</CommonName>
      <Location>
        <Longitude>-2.552639</Longitude>
        <Latitude>53.565344</Latitude>
      </Location>
    </AnnotatedStopPointRef>
    <AnnotatedStopPointRef>
      <StopPointRef>1800WA33501</StopPointRef>
      <CommonName>Broadhurst Farm</CommonName>
      <Location>
        <Longitude>-2.551979</Longitude>
        <Latitude>53.565698</Latitude>
      </Location>
    </AnnotatedStopPointRef>
    <AnnotatedStopPointRef>
      <StopPointRef>1800SJ03231</StopPointRef>
      <CommonName>Broadoak</CommonName>
      <Location>
        <Longitude>-2.337623</Longitude>
        <Latitude>53.472611</Latitude>
      </Location>
    </AnnotatedStopPointRef>
    <AnnotatedStopPointRef>
      <StopPointRef>1800SJ04161</StopPointRef>
      <CommonName>Broadoak</CommonName>
      <Location>
        <Longitude>-2.338176</Longitude>
        <Latitude>53.472134</Latitude>
      </Location>
    </AnnotatedStopPointRef>
    <AnnotatedStopPointRef>
      <StopPointRef>1800EH20841</StopPointRef>
      <CommonName>Broadoak Hotel</CommonName>
      <Location>
        <Longitude>-2.092734</Longitude>
        <Latitude>53.500360</Latitude>
      </Location>
    </AnnotatedStopPointRef>
    <AnnotatedStopPointRef>
      <StopPointRef>1800SB05881</StopPointRef>
      <CommonName>Broadoak Road</CommonName>
      <Location>
        <Longitude>-2.267406</Longitude>
        <Latitude>53.389259</Latitude>
      </Location>
    </AnnotatedStopPointRef>
    <AnnotatedStopPointRef>
      <StopPointRef>1800SB05871</StopPointRef>
      <CommonName>Broadoak Road</CommonName>
      <Location>
        <Longitude>-2.267946</Longitude>
        <Latitude>53.389150</Latitude>
      </Location>
    </AnnotatedStopPointRef>
    <AnnotatedStopPointRef>
      <StopPointRef>1800WA09991</StopPointRef>
      <CommonName>Broadway</CommonName>
      <Location>
        <Longitude>-2.472144</Longitude>
        <Latitude>53.533745</Latitude>
      </Location>
    </AnnotatedStopPointRef>
    <AnnotatedStopPointRef>
      <StopPointRef>1800WA43881</StopPointRef>
      <CommonName>Brock Avenue</CommonName>
      <Location>
        <Longitude>-2.384736</Longitude>
        <Latitude>53.579476</Latitude>
      </Location>
    </AnnotatedStopPointRef>
    <AnnotatedStopPointRef>
      <StopPointRef>1800WA43891</StopPointRef>
      <CommonName>Brock Avenue</CommonName>
      <Location>
        <Longitude>-2.384973</Longitude>
        <Latitude>53.578954</Latitude>
      </Location>
    </AnnotatedStopPointRef>
    <AnnotatedStopPointRef>
      <StopPointRef>1800EDH2271</StopPointRef>
      <CommonName>Brookdale Mews</CommonName>
      <Location>
        <Longitude>-2.163083</Longitude>
        <Latitude>53.502253</Latitude>
      </Location>
    </AnnotatedStopPointRef>
    <AnnotatedStopPointRef>
      <StopPointRef>1800EDH2261</StopPointRef>
      <CommonName>Brookdale Mews</CommonName>
      <Location>
        <Longitude>-2.162992</Longitude>
        <Latitude>53.502163</Latitude>
      </Location>
    </AnnotatedStopPointRef>
    <AnnotatedStopPointRef>
      <StopPointRef>1800EDH2281</StopPointRef>
      <CommonName>Brooks Drive</CommonName>
      <Location>
        <Longitude>-2.165122</Longitude>
        <Latitude>53.503275</Latitude>
      </Location>
    </AnnotatedStopPointRef>
    <AnnotatedStopPointRef>
      <StopPointRef>1800EDH5141</StopPointRef>
      <CommonName>Brooks Drive</CommonName>
      <Location>
        <Longitude>-2.165046</Longitude>
        <Latitude>53.503158</Latitude>
      </Location>
    </AnnotatedStopPointRef>
    <AnnotatedStopPointRef>
      <StopPointRef>1800SJ41391</StopPointRef>
      <CommonName>Brooks Drive</CommonName>
      <Location>
        <Longitude>-2.303686</Longitude>
        <Latitude>53.365802</Latitude>
      </Location>
    </AnnotatedStopPointRef>
    <AnnotatedStopPointRef>
      <StopPointRef>1800SB41701</StopPointRef>
      <CommonName>Brookway High School</CommonName>
      <Location>
        <Longitude>-2.294558</Longitude>
        <Latitude>53.401887</Latitude>
      </Location>
    </AnnotatedStopPointRef>
    <AnnotatedStopPointRef>
      <StopPointRef>1800ED24551</StopPointRef>
      <CommonName>Brown Cow</CommonName>
      <Location>
        <Longitude>-2.161827</Longitude>
        <Latitude>53.509014</Latitude>
      </Location>
    </AnnotatedStopPointRef>
    <AnnotatedStopPointRef>
      <StopPointRef>1800WK06751</StopPointRef>
      <CommonName>Brown Street</CommonName>
      <Location>
        <Longitude>-2.602012</Longitude>
        <Latitude>53.541997</Latitude>
      </Location>
    </AnnotatedStopPointRef>
    <AnnotatedStopPointRef>
      <StopPointRef>1800WK35461</StopPointRef>
      <CommonName>Brown Street</CommonName>
      <Location>
        <Longitude>-2.512277</Longitude>
        <Latitude>53.496331</Latitude>
      </Location>
    </AnnotatedStopPointRef>
    <AnnotatedStopPointRef>
      <StopPointRef>1800WK06741</StopPointRef>
      <CommonName>Brown Street</CommonName>
      <Location>
        <Longitude>-2.601223</Longitude>
        <Latitude>53.541731</Latitude>
      </Location>
    </AnnotatedStopPointRef>
    <AnnotatedStopPointRef>
      <StopPointRef>1800WK36571</StopPointRef>
      <CommonName>Browning Street</CommonName>
      <Location>
        <Longitude>-2.534622</Longitude>
        <Latitude>53.503945</Latitude>
      </Location>
    </AnnotatedStopPointRef>
    <AnnotatedStopPointRef>
      <StopPointRef>1800WA19821</StopPointRef>
      <CommonName>Brownlow Road</CommonName>
      <Location>
        <Longitude>-2.546841</Longitude>
        <Latitude>53.600417</Latitude>
      </Location>
    </AnnotatedStopPointRef>
    <AnnotatedStopPointRef>
      <StopPointRef>1800WA14431</StopPointRef>
      <CommonName>Brownlow Road</CommonName>
      <Location>
        <Longitude>-2.546247</Longitude>
        <Latitude>53.600042</Latitude>
      </Location>
    </AnnotatedStopPointRef>
    <AnnotatedStopPointRef>
      <StopPointRef>1800SB32441</StopPointRef>
      <CommonName>Brundretts Road</CommonName>
      <Location>
        <Longitude>-2.279227</Longitude>
        <Latitude>53.442480</Latitude>
      </Location>
    </AnnotatedStopPointRef>
    <AnnotatedStopPointRef>
      <StopPointRef>1800WK37491</StopPointRef>
      <CommonName>Brunswick Street</CommonName>
      <Location>
        <Longitude>-2.509294</Longitude>
        <Latitude>53.495193</Latitude>
      </Location>
    </AnnotatedStopPointRef>
    <AnnotatedStopPointRef>
      <StopPointRef>1800SB32491</StopPointRef>
      <CommonName>Buckingham Rd</CommonName>
      <Location>
        <Longitude>-2.271654</Longitude>
        <Latitude>53.442444</Latitude>
      </Location>
    </AnnotatedStopPointRef>
    <AnnotatedStopPointRef>
      <StopPointRef>1800SB32481</StopPointRef>
      <CommonName>Buckingham Road</CommonName>
      <Location>
        <Longitude>-2.271490</Longitude>
        <Latitude>53.442588</Latitude>
      </Location>
    </AnnotatedStopPointRef>
    <AnnotatedStopPointRef>
      <StopPointRef>1800EB02861</StopPointRef>
      <CommonName>Buckley Road</CommonName>
      <Location>
        <Longitude>-2.181029</Longitude>
        <Latitude>53.457635</Latitude>
      </Location>
    </AnnotatedStopPointRef>
    <AnnotatedStopPointRef>
      <StopPointRef>1800EB02851</StopPointRef>
      <CommonName>Buckley Road</CommonName>
      <Location>
        <Longitude>-2.181212</Longitude>
        <Latitude>53.458174</Latitude>
      </Location>
    </AnnotatedStopPointRef>
    <AnnotatedStopPointRef>
      <StopPointRef>1800WK08011</StopPointRef>
      <CommonName>Bungalows</CommonName>
      <Location>
        <Longitude>-2.599286</Longitude>
        <Latitude>53.547745</Latitude>
      </Location>
    </AnnotatedStopPointRef>
    <AnnotatedStopPointRef>
      <StopPointRef>1800WK15601</StopPointRef>
      <CommonName>Bungalows</CommonName>
      <Location>
        <Longitude>-2.599394</Longitude>
        <Latitude>53.547888</Latitude>
      </Location>
    </AnnotatedStopPointRef>
    <AnnotatedStopPointRef>
      <StopPointRef>1800WF39941</StopPointRef>
      <CommonName>Burgess Farm</CommonName>
      <Location>
        <Longitude>-2.408152</Longitude>
        <Latitude>53.518898</Latitude>
      </Location>
    </AnnotatedStopPointRef>
    <AnnotatedStopPointRef>
      <StopPointRef>1800WF09341</StopPointRef>
      <CommonName>Burgess Farm</CommonName>
      <Location>
        <Longitude>-2.408108</Longitude>
        <Latitude>53.518997</Latitude>
      </Location>
    </AnnotatedStopPointRef>
    <AnnotatedStopPointRef>
      <StopPointRef>1800SG40451</StopPointRef>
      <CommonName>Burnage Lane</CommonName>
      <Location>
        <Longitude>-2.213780</Longitude>
        <Latitude>53.411740</Latitude>
      </Location>
    </AnnotatedStopPointRef>
    <AnnotatedStopPointRef>
      <StopPointRef>1800SG00441</StopPointRef>
      <CommonName>Burnage Lane</CommonName>
      <Location>
        <Longitude>-2.214576</Longitude>
        <Latitude>53.411513</Latitude>
      </Location>
    </AnnotatedStopPointRef>
    <AnnotatedStopPointRef>
      <StopPointRef>1800SB14241</StopPointRef>
      <CommonName>Burnage Parrs Wood</CommonName>
      <Location>
        <Longitude>-2.220854</Longitude>
        <Latitude>53.415313</Latitude>
      </Location>
    </AnnotatedStopPointRef>
    <AnnotatedStopPointRef>
      <StopPointRef>1800SB14231</StopPointRef>
      <CommonName>Burnage Parrs Wood</CommonName>
      <Location>
        <Longitude>-2.220542</Longitude>
        <Latitude>53.416105</Latitude>
      </Location>
    </AnnotatedStopPointRef>
    <AnnotatedStopPointRef>
      <StopPointRef>1800NC42341</StopPointRef>
      <CommonName>Bury New Road</CommonName>
      <Location>
        <Longitude>-2.275841</Longitude>
        <Latitude>53.523878</Latitude>
      </Location>
    </AnnotatedStopPointRef>
    <AnnotatedStopPointRef>
      <StopPointRef>1800NC19001</StopPointRef>
      <CommonName>Bury New Road</CommonName>
      <Location>
        <Longitude>-2.280748</Longitude>
        <Latitude>53.529143</Latitude>
      </Location>
    </AnnotatedStopPointRef>
    <AnnotatedStopPointRef>
      <StopPointRef>1800NC41621</StopPointRef>
      <CommonName>Bury Old Road</CommonName>
      <Location>
        <Longitude>-2.265408</Longitude>
        <Latitude>53.524747</Latitude>
      </Location>
    </AnnotatedStopPointRef>
    <AnnotatedStopPointRef>
      <StopPointRef>1800EB33451</StopPointRef>
      <CommonName>Business Park</CommonName>
      <Location>
        <Longitude>-2.201211</Longitude>
        <Latitude>53.502500</Latitude>
      </Location>
    </AnnotatedStopPointRef>
    <AnnotatedStopPointRef>
      <StopPointRef>1800WK13191</StopPointRef>
      <CommonName>Business Park</CommonName>
      <Location>
        <Longitude>-2.439093</Longitude>
        <Latitude>53.505054</Latitude>
      </Location>
    </AnnotatedStopPointRef>
    <AnnotatedStopPointRef>
      <StopPointRef>1800EB33461</StopPointRef>
      <CommonName>Business Park</CommonName>
      <Location>
        <Longitude>-2.200835</Longitude>
        <Latitude>53.502735</Latitude>
      </Location>
    </AnnotatedStopPointRef>
    <AnnotatedStopPointRef>
      <StopPointRef>1800EB05111</StopPointRef>
      <CommonName>Business Park</CommonName>
      <Location>
        <Longitude>-2.205356</Longitude>
        <Latitude>53.502358</Latitude>
      </Location>
    </AnnotatedStopPointRef>
    <AnnotatedStopPointRef>
      <StopPointRef>1800EB05231</StopPointRef>
      <CommonName>Business Park</CommonName>
      <Location>
        <Longitude>-2.205235</Longitude>
        <Latitude>53.502278</Latitude>
      </Location>
    </AnnotatedStopPointRef>
    <AnnotatedStopPointRef>
      <StopPointRef>1800EB06441</StopPointRef>
      <CommonName>Business Park</CommonName>
      <Location>
        <Longitude>-2.198516</Longitude>
        <Latitude>53.503332</Latitude>
      </Location>
    </AnnotatedStopPointRef>
    <AnnotatedStopPointRef>
      <StopPointRef>1800WK36681</StopPointRef>
      <CommonName>Business Park</CommonName>
      <Location>
        <Longitude>-2.546905</Longitude>
        <Latitude>53.516447</Latitude>
      </Location>
    </AnnotatedStopPointRef>
    <AnnotatedStopPointRef>
      <StopPointRef>1800NF28571</StopPointRef>
      <CommonName>Business Park</CommonName>
      <Location>
        <Longitude>-2.358716</Longitude>
        <Latitude>53.487012</Latitude>
      </Location>
    </AnnotatedStopPointRef>
    <AnnotatedStopPointRef>
      <StopPointRef>1800NC42121</StopPointRef>
      <CommonName>Butt Hill Road</CommonName>
      <Location>
        <Longitude>-2.277371</Longitude>
        <Latitude>53.522652</Latitude>
      </Location>
    </AnnotatedStopPointRef>
    <AnnotatedStopPointRef>
      <StopPointRef>1800WA42331</StopPointRef>
      <CommonName>Buttermere Road</CommonName>
      <Location>
        <Longitude>-2.436455</Longitude>
        <Latitude>53.547659</Latitude>
      </Location>
    </AnnotatedStopPointRef>
    <AnnotatedStopPointRef>
      <StopPointRef>1800WA19981</StopPointRef>
      <CommonName>Butterwick Fields</CommonName>
      <Location>
        <Longitude>-2.562483</Longitude>
        <Latitude>53.594906</Latitude>
      </Location>
    </AnnotatedStopPointRef>
    <AnnotatedStopPointRef>
      <StopPointRef>1800WA34711</StopPointRef>
      <CommonName>Butterwick Fields</CommonName>
      <Location>
        <Longitude>-2.563380</Longitude>
        <Latitude>53.594147</Latitude>
      </Location>
    </AnnotatedStopPointRef>
    <AnnotatedStopPointRef>
      <StopPointRef>1800WK37431</StopPointRef>
      <CommonName>Butts Bridge</CommonName>
      <Location>
        <Longitude>-2.500564</Longitude>
        <Latitude>53.492453</Latitude>
      </Location>
    </AnnotatedStopPointRef>
    <AnnotatedStopPointRef>
      <StopPointRef>1800WK37441</StopPointRef>
      <CommonName>Butts Bridge</CommonName>
      <Location>
        <Longitude>-2.500565</Longitude>
        <Latitude>53.492543</Latitude>
      </Location>
    </AnnotatedStopPointRef>
    <AnnotatedStopPointRef>
      <StopPointRef>1800SBH0851</StopPointRef>
      <CommonName>Caldervale Avenue</CommonName>
      <Location>
        <Longitude>-2.263495</Longitude>
        <Latitude>53.420647</Latitude>
      </Location>
    </AnnotatedStopPointRef>
    <AnnotatedStopPointRef>
      <StopPointRef>1800SBH0761</StopPointRef>
      <CommonName>Caldervale Avenue</CommonName>
      <Location>
        <Longitude>-2.265692</Longitude>
        <Latitude>53.423114</Latitude>
      </Location>
    </AnnotatedStopPointRef>
    <AnnotatedStopPointRef>
      <StopPointRef>1800WK02491</StopPointRef>
      <CommonName>Cambridge Street</CommonName>
      <Location>
        <Longitude>-2.621168</Longitude>
        <Latitude>53.543445</Latitude>
      </Location>
    </AnnotatedStopPointRef>
    <AnnotatedStopPointRef>
      <StopPointRef>1800WA09811</StopPointRef>
      <CommonName>Canada Street</CommonName>
      <Location>
        <Longitude>-2.548312</Longitude>
        <Latitude>53.598514</Latitude>
      </Location>
    </AnnotatedStopPointRef>
    <AnnotatedStopPointRef>
      <StopPointRef>1800WA19211</StopPointRef>
      <CommonName>Canon Slade HS</CommonName>
      <Location>
        <Longitude>-2.408542</Longitude>
        <Latitude>53.601643</Latitude>
      </Location>
    </AnnotatedStopPointRef>
    <AnnotatedStopPointRef>
      <StopPointRef>1800WA12361</StopPointRef>
      <CommonName>Canon Slade School</CommonName>
      <Location>
        <Longitude>-2.408787</Longitude>
        <Latitude>53.600402</Latitude>
      </Location>
    </AnnotatedStopPointRef>
    <AnnotatedStopPointRef>
      <StopPointRef>1800WK30701</StopPointRef>
      <CommonName>Car Bank Street</CommonName>
      <Location>
        <Longitude>-2.483897</Longitude>
        <Latitude>53.527145</Latitude>
      </Location>
    </AnnotatedStopPointRef>
    <AnnotatedStopPointRef>
      <StopPointRef>1800SJ01961</StopPointRef>
      <CommonName>Carborundum</CommonName>
      <Location>
        <Longitude>-2.314456</Longitude>
        <Latitude>53.471138</Latitude>
      </Location>
    </AnnotatedStopPointRef>
    <AnnotatedStopPointRef>
      <StopPointRef>1800SJ01711</StopPointRef>
      <CommonName>Carborundum</CommonName>
      <Location>
        <Longitude>-2.313882</Longitude>
        <Latitude>53.470923</Latitude>
      </Location>
    </AnnotatedStopPointRef>
    <AnnotatedStopPointRef>
      <StopPointRef>1800WF41251</StopPointRef>
      <CommonName>Carlisle Street</CommonName>
      <Location>
        <Longitude>-2.337372</Longitude>
        <Latitude>53.518876</Latitude>
      </Location>
    </AnnotatedStopPointRef>
    <AnnotatedStopPointRef>
      <StopPointRef>1800SB41531</StopPointRef>
      <CommonName>Carloon Road</CommonName>
      <Location>
        <Longitude>-2.278350</Longitude>
        <Latitude>53.407373</Latitude>
      </Location>
    </AnnotatedStopPointRef>
    <AnnotatedStopPointRef>
      <StopPointRef>1800SB41541</StopPointRef>
      <CommonName>Carloon Road</CommonName>
      <Location>
        <Longitude>-2.276499</Longitude>
        <Latitude>53.407314</Latitude>
      </Location>
    </AnnotatedStopPointRef>
    <AnnotatedStopPointRef>
      <StopPointRef>1800WF39891</StopPointRef>
      <CommonName>Carlton Road</CommonName>
      <Location>
        <Longitude>-2.408536</Longitude>
        <Latitude>53.514861</Latitude>
      </Location>
    </AnnotatedStopPointRef>
    <AnnotatedStopPointRef>
      <StopPointRef>1800SJ04061</StopPointRef>
      <CommonName>Carnall Leisure Centre</CommonName>
      <Location>
        <Longitude>-2.342222</Longitude>
        <Latitude>53.458154</Latitude>
      </Location>
    </AnnotatedStopPointRef>
    <AnnotatedStopPointRef>
      <StopPointRef>1800EB03591</StopPointRef>
      <CommonName>Carrill Grove</CommonName>
      <Location>
        <Longitude>-2.191637</Longitude>
        <Latitude>53.445592</Latitude>
      </Location>
    </AnnotatedStopPointRef>
    <AnnotatedStopPointRef>
      <StopPointRef>1800EB02991</StopPointRef>
      <CommonName>Carrill Grove</CommonName>
      <Location>
        <Longitude>-2.191381</Longitude>
        <Latitude>53.445494</Latitude>
      </Location>
    </AnnotatedStopPointRef>
    <AnnotatedStopPointRef>
      <StopPointRef>1800WA42861</StopPointRef>
      <CommonName>Carter Street</CommonName>
      <Location>
        <Longitude>-2.420249</Longitude>
        <Latitude>53.563214</Latitude>
      </Location>
    </AnnotatedStopPointRef>
    <AnnotatedStopPointRef>
      <StopPointRef>1800WK11281</StopPointRef>
      <CommonName>Castle Hill Broadway</CommonName>
      <Location>
        <Longitude>-2.556962</Longitude>
        <Latitude>53.536984</Latitude>
      </Location>
    </AnnotatedStopPointRef>
    <AnnotatedStopPointRef>
      <StopPointRef>1800WK32691</StopPointRef>
      <CommonName>Castle Hill Broadway/Sussex Cl</CommonName>
      <Location>
        <Longitude>-2.557337</Longitude>
        <Latitude>53.535643</Latitude>
      </Location>
    </AnnotatedStopPointRef>
    <AnnotatedStopPointRef>
      <StopPointRef>1800WAH1271</StopPointRef>
      <CommonName>Castle Street</CommonName>
      <Location>
        <Longitude>-2.412956</Longitude>
        <Latitude>53.575499</Latitude>
      </Location>
    </AnnotatedStopPointRef>
    <AnnotatedStopPointRef>
      <StopPointRef>1800WAH1661</StopPointRef>
      <CommonName>Castle Street</CommonName>
      <Location>
        <Longitude>-2.413182</Longitude>
        <Latitude>53.575408</Latitude>
      </Location>
    </AnnotatedStopPointRef>
    <AnnotatedStopPointRef>
      <StopPointRef>1800WK32431</StopPointRef>
      <CommonName>Caton Drive</CommonName>
      <Location>
        <Longitude>-2.509801</Longitude>
        <Latitude>53.513555</Latitude>
      </Location>
    </AnnotatedStopPointRef>
    <AnnotatedStopPointRef>
      <StopPointRef>1800SJ00741</StopPointRef>
      <CommonName>Cavendish Road</CommonName>
      <Location>
        <Longitude>-2.345036</Longitude>
        <Latitude>53.452321</Latitude>
      </Location>
    </AnnotatedStopPointRef>
    <AnnotatedStopPointRef>
      <StopPointRef>1800WA42531</StopPointRef>
      <CommonName>Cawdor Street</CommonName>
      <Location>
        <Longitude>-2.407742</Longitude>
        <Latitude>53.554691</Latitude>
      </Location>
    </AnnotatedStopPointRef>
    <AnnotatedStopPointRef>
      <StopPointRef>1800NF02501</StopPointRef>
      <CommonName>Cemetery Gate</CommonName>
      <Location>
        <Longitude>-2.294586</Longitude>
        <Latitude>53.508194</Latitude>
      </Location>
    </AnnotatedStopPointRef>
    <AnnotatedStopPointRef>
      <StopPointRef>1800NF40651</StopPointRef>
      <CommonName>Cemetery Gate</CommonName>
      <Location>
        <Longitude>-2.294451</Longitude>
        <Latitude>53.508167</Latitude>
      </Location>
    </AnnotatedStopPointRef>
    <AnnotatedStopPointRef>
      <StopPointRef>1800NF40661</StopPointRef>
      <CommonName>Cemetery Lodge</CommonName>
      <Location>
        <Longitude>-2.294296</Longitude>
        <Latitude>53.509803</Latitude>
      </Location>
    </AnnotatedStopPointRef>
    <AnnotatedStopPointRef>
      <StopPointRef>1800NF40671</StopPointRef>
      <CommonName>Cemetery Lodge</CommonName>
      <Location>
        <Longitude>-2.294209</Longitude>
        <Latitude>53.510334</Latitude>
      </Location>
    </AnnotatedStopPointRef>
    <AnnotatedStopPointRef>
      <StopPointRef>1800WA25801</StopPointRef>
      <CommonName>Cemetery Road</CommonName>
      <Location>
        <Longitude>-2.410175</Longitude>
        <Latitude>53.579931</Latitude>
      </Location>
    </AnnotatedStopPointRef>
    <AnnotatedStopPointRef>
      <StopPointRef>1800WF12901</StopPointRef>
      <CommonName>Cemetery Road North</CommonName>
      <Location>
        <Longitude>-2.343581</Longitude>
        <Latitude>53.520072</Latitude>
      </Location>
    </AnnotatedStopPointRef>
    <AnnotatedStopPointRef>
      <StopPointRef>1800WF40921</StopPointRef>
      <CommonName>Cemetery Road South</CommonName>
      <Location>
        <Longitude>-2.345757</Longitude>
        <Latitude>53.515041</Latitude>
      </Location>
    </AnnotatedStopPointRef>
    <AnnotatedStopPointRef>
      <StopPointRef>1800NF09061</StopPointRef>
      <CommonName>Central Avenue</CommonName>
      <Location>
        <Longitude>-2.299510</Longitude>
        <Latitude>53.500784</Latitude>
      </Location>
    </AnnotatedStopPointRef>
    <AnnotatedStopPointRef>
      <StopPointRef>1800WK31921</StopPointRef>
      <CommonName>Chaddock Hall</CommonName>
      <Location>
        <Longitude>-2.438533</Longitude>
        <Latitude>53.504876</Latitude>
      </Location>
    </AnnotatedStopPointRef>
    <AnnotatedStopPointRef>
      <StopPointRef>1800WK31911</StopPointRef>
      <CommonName>Chaddock Hall</CommonName>
      <Location>
        <Longitude>-2.436135</Longitude>
        <Latitude>53.504777</Latitude>
      </Location>
    </AnnotatedStopPointRef>
    <AnnotatedStopPointRef>
      <StopPointRef>1800WK35131</StopPointRef>
      <CommonName>Chadwick Street</CommonName>
      <Location>
        <Longitude>-2.518326</Longitude>
        <Latitude>53.501626</Latitude>
      </Location>
    </AnnotatedStopPointRef>
    <AnnotatedStopPointRef>
      <StopPointRef>1800NF01701</StopPointRef>
      <CommonName>Chandlers Point</CommonName>
      <Location>
        <Longitude>-2.289047</Longitude>
        <Latitude>53.476370</Latitude>
      </Location>
    </AnnotatedStopPointRef>
    <AnnotatedStopPointRef>
      <StopPointRef>1800NF01741</StopPointRef>
      <CommonName>Chandlers Point</CommonName>
      <Location>
        <Longitude>-2.288835</Longitude>
        <Latitude>53.476236</Latitude>
      </Location>
    </AnnotatedStopPointRef>
    <AnnotatedStopPointRef>
      <StopPointRef>1800ED28251</StopPointRef>
      <CommonName>Chapel Road</CommonName>
      <Location>
        <Longitude>-2.133187</Longitude>
        <Latitude>53.521211</Latitude>
      </Location>
    </AnnotatedStopPointRef>
    <AnnotatedStopPointRef>
      <StopPointRef>1800ED28241</StopPointRef>
      <CommonName>Chapel Road</CommonName>
      <Location>
        <Longitude>-2.135356</Longitude>
        <Latitude>53.520534</Latitude>
      </Location>
    </AnnotatedStopPointRef>
    <AnnotatedStopPointRef>
      <StopPointRef>1800NF04071</StopPointRef>
      <CommonName>Chapel Street</CommonName>
      <Location>
        <Longitude>-2.425030</Longitude>
        <Latitude>53.503936</Latitude>
      </Location>
    </AnnotatedStopPointRef>
    <AnnotatedStopPointRef>
      <StopPointRef>1800NF04581</StopPointRef>
      <CommonName>Chapel Street</CommonName>
      <Location>
        <Longitude>-2.424096</Longitude>
        <Latitude>53.503993</Latitude>
      </Location>
    </AnnotatedStopPointRef>
    <AnnotatedStopPointRef>
      <StopPointRef>1800NF15021</StopPointRef>
      <CommonName>Charles Street</CommonName>
      <Location>
        <Longitude>-2.292253</Longitude>
        <Latitude>53.493333</Latitude>
      </Location>
    </AnnotatedStopPointRef>
    <AnnotatedStopPointRef>
      <StopPointRef>1800SB04791</StopPointRef>
      <CommonName>Charlotte Street</CommonName>
      <Location>
        <Longitude>-2.238434</Longitude>
        <Latitude>53.478397</Latitude>
      </Location>
    </AnnotatedStopPointRef>
    <AnnotatedStopPointRef>
      <StopPointRef>1800SB04781</StopPointRef>
      <CommonName>Charlotte Street</CommonName>
      <Location>
        <Longitude>-2.237956</Longitude>
        <Latitude>53.479027</Latitude>
      </Location>
    </AnnotatedStopPointRef>
    <AnnotatedStopPointRef>
      <StopPointRef>1800EB31561</StopPointRef>
      <CommonName>Chatsworth Road</CommonName>
      <Location>
        <Longitude>-2.178593</Longitude>
        <Latitude>53.462016</Latitude>
      </Location>
    </AnnotatedStopPointRef>
    <AnnotatedStopPointRef>
      <StopPointRef>1800NF29071</StopPointRef>
      <CommonName>Chatsworth Road</CommonName>
      <Location>
        <Longitude>-2.334424</Longitude>
        <Latitude>53.491146</Latitude>
      </Location>
    </AnnotatedStopPointRef>
    <AnnotatedStopPointRef>
      <StopPointRef>1800SJ04661</StopPointRef>
      <CommonName>Chatsworth Road</CommonName>
      <Location>
        <Longitude>-2.321945</Longitude>
        <Latitude>53.453437</Latitude>
      </Location>
    </AnnotatedStopPointRef>
    <AnnotatedStopPointRef>
      <StopPointRef>1800SG46341</StopPointRef>
      <CommonName>Cheadle Councillor Ln</CommonName>
      <Location>
        <Longitude>-2.203235</Longitude>
        <Latitude>53.396163</Latitude>
      </Location>
    </AnnotatedStopPointRef>
    <AnnotatedStopPointRef>
      <StopPointRef>1800SG46831</StopPointRef>
      <CommonName>Cheadle Councillor Ln</CommonName>
      <Location>
        <Longitude>-2.204584</Longitude>
        <Latitude>53.395199</Latitude>
      </Location>
    </AnnotatedStopPointRef>
    <AnnotatedStopPointRef>
      <StopPointRef>1800SG15081</StopPointRef>
      <CommonName>Cheadle Old Station</CommonName>
      <Location>
        <Longitude>-2.216966</Longitude>
        <Latitude>53.402296</Latitude>
      </Location>
    </AnnotatedStopPointRef>
    <AnnotatedStopPointRef>
      <StopPointRef>1800SG15091</StopPointRef>
      <CommonName>Cheadle Old Station</CommonName>
      <Location>
        <Longitude>-2.216877</Longitude>
        <Latitude>53.402449</Latitude>
      </Location>
    </AnnotatedStopPointRef>
    <AnnotatedStopPointRef>
      <StopPointRef>1800SG19101</StopPointRef>
      <CommonName>Cheadle White Hart</CommonName>
      <Location>
        <Longitude>-2.218275</Longitude>
        <Latitude>53.393575</Latitude>
      </Location>
    </AnnotatedStopPointRef>
    <AnnotatedStopPointRef>
      <StopPointRef>1800SG19111</StopPointRef>
      <CommonName>Cheadle White Hart</CommonName>
      <Location>
        <Longitude>-2.217974</Longitude>
        <Latitude>53.393530</Latitude>
      </Location>
    </AnnotatedStopPointRef>
    <AnnotatedStopPointRef>
      <StopPointRef>1800NB09261</StopPointRef>
      <CommonName>Cheetham Hill Road</CommonName>
      <Location>
        <Longitude>-2.235000</Longitude>
        <Latitude>53.500407</Latitude>
      </Location>
    </AnnotatedStopPointRef>
    <AnnotatedStopPointRef>
      <StopPointRef>1800NB40911</StopPointRef>
      <CommonName>Cheetham Shopping Centre</CommonName>
      <Location>
        <Longitude>-2.245374</Longitude>
        <Latitude>53.513896</Latitude>
      </Location>
    </AnnotatedStopPointRef>
    <AnnotatedStopPointRef>
      <StopPointRef>1800WF21501</StopPointRef>
      <CommonName>Chelford Drive</CommonName>
      <Location>
        <Longitude>-2.341374</Longitude>
        <Latitude>53.519485</Latitude>
      </Location>
    </AnnotatedStopPointRef>
    <AnnotatedStopPointRef>
      <StopPointRef>1800WF09271</StopPointRef>
      <CommonName>Chelford Drive</CommonName>
      <Location>
        <Longitude>-2.341178</Longitude>
        <Latitude>53.519521</Latitude>
      </Location>
    </AnnotatedStopPointRef>
    <AnnotatedStopPointRef>
      <StopPointRef>1800WA42371</StopPointRef>
      <CommonName>Cherry Tree School</CommonName>
      <Location>
        <Longitude>-2.431665</Longitude>
        <Latitude>53.547111</Latitude>
      </Location>
    </AnnotatedStopPointRef>
    <AnnotatedStopPointRef>
      <StopPointRef>1800SJ00451</StopPointRef>
      <CommonName>Chester Road</CommonName>
      <Location>
        <Longitude>-2.265538</Longitude>
        <Latitude>53.465890</Latitude>
      </Location>
    </AnnotatedStopPointRef>
    <AnnotatedStopPointRef>
      <StopPointRef>1800SJ30451</StopPointRef>
      <CommonName>Chester Road</CommonName>
      <Location>
        <Longitude>-2.265418</Longitude>
        <Latitude>53.466034</Latitude>
      </Location>
    </AnnotatedStopPointRef>
    <AnnotatedStopPointRef>
      <StopPointRef>1800SJ16961</StopPointRef>
      <CommonName>Chester Road</CommonName>
      <Location>
        <Longitude>-2.298450</Longitude>
        <Latitude>53.452932</Latitude>
      </Location>
    </AnnotatedStopPointRef>
    <AnnotatedStopPointRef>
      <StopPointRef>1800SJ16941</StopPointRef>
      <CommonName>Chester Road</CommonName>
      <Location>
        <Longitude>-2.298316</Longitude>
        <Latitude>53.453130</Latitude>
      </Location>
    </AnnotatedStopPointRef>
    <AnnotatedStopPointRef>
      <StopPointRef>1800SJ00871</StopPointRef>
      <CommonName>Chester Road</CommonName>
      <Location>
        <Longitude>-2.303073</Longitude>
        <Latitude>53.450763</Latitude>
      </Location>
    </AnnotatedStopPointRef>
    <AnnotatedStopPointRef>
      <StopPointRef>1800SJ00861</StopPointRef>
      <CommonName>Chester Road</CommonName>
      <Location>
        <Longitude>-2.303527</Longitude>
        <Latitude>53.451095</Latitude>
      </Location>
    </AnnotatedStopPointRef>
    <AnnotatedStopPointRef>
      <StopPointRef>1800SG07581</StopPointRef>
      <CommonName>Chester Street</CommonName>
      <Location>
        <Longitude>-2.170123</Longitude>
        <Latitude>53.408161</Latitude>
      </Location>
    </AnnotatedStopPointRef>
    <AnnotatedStopPointRef>
      <StopPointRef>1800SB31411</StopPointRef>
      <CommonName>Chichester Road</CommonName>
      <Location>
        <Longitude>-2.251030</Longitude>
        <Latitude>53.460385</Latitude>
      </Location>
    </AnnotatedStopPointRef>
    <AnnotatedStopPointRef>
      <StopPointRef>1800NF30861</StopPointRef>
      <CommonName>Cholmondley Road</CommonName>
      <Location>
        <Longitude>-2.320950</Longitude>
        <Latitude>53.493142</Latitude>
      </Location>
    </AnnotatedStopPointRef>
    <AnnotatedStopPointRef>
      <StopPointRef>1800NF00591</StopPointRef>
      <CommonName>Cholmondley Road</CommonName>
      <Location>
        <Longitude>-2.311523</Longitude>
        <Latitude>53.494336</Latitude>
      </Location>
    </AnnotatedStopPointRef>
    <AnnotatedStopPointRef>
      <StopPointRef>1800WF39611</StopPointRef>
      <CommonName>Chorley Road</CommonName>
      <Location>
        <Longitude>-2.333786</Longitude>
        <Latitude>53.507713</Latitude>
      </Location>
    </AnnotatedStopPointRef>
    <AnnotatedStopPointRef>
      <StopPointRef>1800WA33481</StopPointRef>
      <CommonName>Chorley Road</CommonName>
      <Location>
        <Longitude>-2.546649</Longitude>
        <Latitude>53.568033</Latitude>
      </Location>
    </AnnotatedStopPointRef>
    <AnnotatedStopPointRef>
      <StopPointRef>1800WA33491</StopPointRef>
      <CommonName>Chorley Road</CommonName>
      <Location>
        <Longitude>-2.547026</Longitude>
        <Latitude>53.567959</Latitude>
      </Location>
    </AnnotatedStopPointRef>
    <AnnotatedStopPointRef>
      <StopPointRef>1800SB32751</StopPointRef>
      <CommonName>Chorlton Bus Station</CommonName>
      <Location>
        <Longitude>-2.274458</Longitude>
        <Latitude>53.438329</Latitude>
      </Location>
    </AnnotatedStopPointRef>
    <AnnotatedStopPointRef>
      <StopPointRef>1800SB32791</StopPointRef>
      <CommonName>Chorlton Bus Station</CommonName>
      <Location>
        <Longitude>-2.274348</Longitude>
        <Latitude>53.437593</Latitude>
      </Location>
    </AnnotatedStopPointRef>
    <AnnotatedStopPointRef>
      <StopPointRef>1800SB32741</StopPointRef>
      <CommonName>Chorlton Green</CommonName>
      <Location>
        <Longitude>-2.283085</Longitude>
        <Latitude>53.438606</Latitude>
      </Location>
    </AnnotatedStopPointRef>
    <AnnotatedStopPointRef>
      <StopPointRef>1800SB32461</StopPointRef>
      <CommonName>Chorlton Metrolink Stop</CommonName>
      <Location>
        <Longitude>-2.274003</Longitude>
        <Latitude>53.442510</Latitude>
      </Location>
    </AnnotatedStopPointRef>
    <AnnotatedStopPointRef>
      <StopPointRef>1800SB32471</StopPointRef>
      <CommonName>Chorlton Post Office</CommonName>
      <Location>
        <Longitude>-2.275990</Longitude>
        <Latitude>53.442407</Latitude>
      </Location>
    </AnnotatedStopPointRef>
    <AnnotatedStopPointRef>
      <StopPointRef>1800EH20921</StopPointRef>
      <CommonName>Christ Church</CommonName>
      <Location>
        <Longitude>-2.100905</Longitude>
        <Latitude>53.493864</Latitude>
      </Location>
    </AnnotatedStopPointRef>
    <AnnotatedStopPointRef>
      <StopPointRef>1800WA34591</StopPointRef>
      <CommonName>Church Lane</CommonName>
      <Location>
        <Longitude>-2.526922</Longitude>
        <Latitude>53.561371</Latitude>
      </Location>
    </AnnotatedStopPointRef>
    <AnnotatedStopPointRef>
      <StopPointRef>1800EB48261</StopPointRef>
      <CommonName>Church Lane</CommonName>
      <Location>
        <Longitude>-2.209873</Longitude>
        <Latitude>53.510278</Latitude>
      </Location>
    </AnnotatedStopPointRef>
    <AnnotatedStopPointRef>
      <StopPointRef>1800WA34581</StopPointRef>
      <CommonName>Church Lane</CommonName>
      <Location>
        <Longitude>-2.527421</Longitude>
        <Latitude>53.561432</Latitude>
      </Location>
    </AnnotatedStopPointRef>
    <AnnotatedStopPointRef>
      <StopPointRef>1800EB33561</StopPointRef>
      <CommonName>Church Ln/Lightbowne Road</CommonName>
      <Location>
        <Longitude>-2.196731</Longitude>
        <Latitude>53.505168</Latitude>
      </Location>
    </AnnotatedStopPointRef>
    <AnnotatedStopPointRef>
      <StopPointRef>1800EB33551</StopPointRef>
      <CommonName>Church Ln/Lightbowne Road</CommonName>
      <Location>
        <Longitude>-2.195915</Longitude>
        <Latitude>53.504720</Latitude>
      </Location>
    </AnnotatedStopPointRef>
    <AnnotatedStopPointRef>
      <StopPointRef>1800SGH3691</StopPointRef>
      <CommonName>Church Road</CommonName>
      <Location>
        <Longitude>-2.236416</Longitude>
        <Latitude>53.391823</Latitude>
      </Location>
    </AnnotatedStopPointRef>
    <AnnotatedStopPointRef>
      <StopPointRef>1800WA15351</StopPointRef>
      <CommonName>Church Road</CommonName>
